{"type": "FeatureCollection", "features": [{"geometry": {"type": "Point", "coordinates": [-73.7549679, 42.6511674]}, "type": "Feature", "properties": {"rating": 6.4, "genres": ["Comedy", "Fantasy", "Romance"], "marker-color": "0044FF", "marker-symbol": "cinema", "title": "Kate & Leopold", "url": "www.imdb.com/title/tt0035423", "id": "0035423", "directors": ["James Mangold"], "location": "Albany, Albany County, New York, United States of America", "year": 2001, "num_of_locations": 4}}, {"geometry": {"type": "Point", "coordinates": [-73.9865811, 40.7305991]}, "type": "Feature", "properties": {"rating": 6.4, "genres": ["Comedy", "Fantasy", "Romance"], "marker-color": "0044FF", "marker-symbol": "cinema", "title": "Kate & Leopold", "url": "www.imdb.com/title/tt0035423", "id": "0035423", "directors": ["James Mangold"], "location": "New York City, United States of America", "year": 2001, "num_of_locations": 4}}, {"geometry": {"type": "Point", "coordinates": [-74.7862733, 40.1159436]}, "type": "Feature", "properties": {"rating": 6.4, "genres": ["Comedy", "Fantasy", "Romance"], "marker-color": "0044FF", "marker-symbol": "cinema", "title": "Kate & Leopold", "url": "www.imdb.com/title/tt0035423", "id": "0035423", "directors": ["James Mangold"], "location": "Roebling, Burlington County, New Jersey, United States of America", "year": 2001, "num_of_locations": 4}}, {"geometry": {"type": "Point", "coordinates": [-73.9903533, 40.7010428]}, "type": "Feature", "properties": {"rating": 6.4, "genres": ["Comedy", "Fantasy", "Romance"], "marker-color": "0044FF", "marker-symbol": "cinema", "title": "Kate & Leopold", "url": "www.imdb.com/title/tt0035423", "id": "0035423", "directors": ["James Mangold"], "location": "Brooklyn Bridge, New York City, NY NY 11201, United States of America", "year": 2001, "num_of_locations": 4}}, {"geometry": {"type": "Point", "coordinates": [-73.9865811, 40.7305991]}, "type": "Feature", "properties": {"rating": 2.2, "genres": ["Drama", "Music", "Romance"], "marker-color": "0044FF", "marker-symbol": "cinema", "title": "Glitter", "url": "www.imdb.com/title/tt0118589", "id": "0118589", "directors": ["Vondie Curtis-Hall"], "location": "New York City, United States of America", "year": 2001, "num_of_locations": 4}}, {"geometry": {"type": "Point", "coordinates": [-84.1599223, 9.9809519]}, "type": "Feature", "properties": {"rating": 2.2, "genres": ["Drama", "Music", "Romance"], "marker-color": "0044FF", "marker-symbol": "cinema", "title": "Glitter", "url": "www.imdb.com/title/tt0118589", "id": "0118589", "directors": ["Vondie Curtis-Hall"], "location": "Sylk, 111, Provincia Heredia, Ulloa, Real Cariari, 40104 Costa Rica", "year": 2001, "num_of_locations": 4}}, {"geometry": {"type": "Point", "coordinates": [-77.0380294, 40.8878605]}, "type": "Feature", "properties": {"rating": 2.2, "genres": ["Drama", "Music", "Romance"], "marker-color": "0044FF", "marker-symbol": "cinema", "title": "Glitter", "url": "www.imdb.com/title/tt0118589", "id": "0118589", "directors": ["Vondie Curtis-Hall"], "location": "Dice, Union County, Pennsylvania, United States of America", "year": 2001, "num_of_locations": 4}}, {"geometry": {"type": "Point", "coordinates": [-100.4458824, 39.7837304]}, "type": "Feature", "properties": {"rating": 2.2, "genres": ["Drama", "Music", "Romance"], "marker-color": "0044FF", "marker-symbol": "cinema", "title": "Glitter", "url": "www.imdb.com/title/tt0118589", "id": "0118589", "directors": ["Vondie Curtis-Hall"], "location": "United States of America", "year": 2001, "num_of_locations": 4}}, {"geometry": {"type": "Point", "coordinates": [22.4419608, 40.0240011]}, "type": "Feature", "properties": {"rating": 8.8, "genres": ["Adventure", "Drama", "Fantasy"], "marker-color": "0044FF", "marker-symbol": "cinema", "title": "The Lord of the Rings: The Fellowship of the Ring", "url": "www.imdb.com/title/tt0120737", "id": "0120737", "directors": ["Peter Jackson"], "location": "Moria, Elassona Municipality, Greece", "year": 2001, "num_of_locations": 14}}, {"geometry": {"type": "Point", "coordinates": [5.5470211, 51.4140568]}, "type": "Feature", "properties": {"rating": 8.8, "genres": ["Adventure", "Drama", "Fantasy"], "marker-color": "0044FF", "marker-symbol": "cinema", "title": "The Lord of the Rings: The Fellowship of the Ring", "url": "www.imdb.com/title/tt0120737", "id": "0120737", "directors": ["Peter Jackson"], "location": "Aragorn, 5661 Geldrop-Mierlo, The Netherlands", "year": 2001, "num_of_locations": 14}}, {"geometry": {"type": "Point", "coordinates": [-122.2495704, 37.8677187]}, "type": "Feature", "properties": {"rating": 8.8, "genres": ["Adventure", "Drama", "Fantasy"], "marker-color": "0044FF", "marker-symbol": "cinema", "title": "The Lord of the Rings: The Fellowship of the Ring", "url": "www.imdb.com/title/tt0120737", "id": "0120737", "directors": ["Peter Jackson"], "location": "2415 Lothlorien, Berkeley, CA 94720, United States of America", "year": 2001, "num_of_locations": 14}}, {"geometry": {"type": "Point", "coordinates": [-76.5168988, 38.3242916]}, "type": "Feature", "properties": {"rating": 8.8, "genres": ["Adventure", "Drama", "Fantasy"], "marker-color": "0044FF", "marker-symbol": "cinema", "title": "The Lord of the Rings: The Fellowship of the Ring", "url": "www.imdb.com/title/tt0120737", "id": "0120737", "directors": ["Peter Jackson"], "location": "Middle Earth, Saint Mary's County, Maryland, United States of America", "year": 2001, "num_of_locations": 14}}, {"geometry": {"type": "Point", "coordinates": [14.054722, 50.797555]}, "type": "Feature", "properties": {"rating": 8.8, "genres": ["Adventure", "Drama", "Fantasy"], "marker-color": "0044FF", "marker-symbol": "cinema", "title": "The Lord of the Rings: The Fellowship of the Ring", "url": "www.imdb.com/title/tt0120737", "id": "0120737", "directors": ["Peter Jackson"], "location": "Glum, J\u00edlov\u00e9, okres D\u011b\u010d\u00edn, Czechia", "year": 2001, "num_of_locations": 14}}, {"geometry": {"type": "Point", "coordinates": [-76.5719084, 39.0773322]}, "type": "Feature", "properties": {"rating": 8.8, "genres": ["Adventure", "Drama", "Fantasy"], "marker-color": "0044FF", "marker-symbol": "cinema", "title": "The Lord of the Rings: The Fellowship of the Ring", "url": "www.imdb.com/title/tt0120737", "id": "0120737", "directors": ["Peter Jackson"], "location": "Rivendell, Anne Arundel County, Maryland, United States of America", "year": 2001, "num_of_locations": 14}}, {"geometry": {"type": "Point", "coordinates": [-3.2103135, 53.2134229]}, "type": "Feature", "properties": {"rating": 8.8, "genres": ["Adventure", "Drama", "Fantasy"], "marker-color": "0044FF", "marker-symbol": "cinema", "title": "The Lord of the Rings: The Fellowship of the Ring", "url": "www.imdb.com/title/tt0120737", "id": "0120737", "directors": ["Peter Jackson"], "location": "Weathertop, Moel-y-crio, United Kingdom", "year": 2001, "num_of_locations": 14}}, {"geometry": {"type": "Point", "coordinates": [131.236338, -0.8873747]}, "type": "Feature", "properties": {"rating": 8.8, "genres": ["Adventure", "Drama", "Fantasy"], "marker-color": "0044FF", "marker-symbol": "cinema", "title": "The Lord of the Rings: The Fellowship of the Ring", "url": "www.imdb.com/title/tt0120737", "id": "0120737", "directors": ["Peter Jackson"], "location": "Sorong, West Papua, Indonesia", "year": 2001, "num_of_locations": 14}}, {"geometry": {"type": "Point", "coordinates": [4.3110181, 45.0439353]}, "type": "Feature", "properties": {"rating": 8.8, "genres": ["Adventure", "Drama", "Fantasy"], "marker-color": "0044FF", "marker-symbol": "cinema", "title": "The Lord of the Rings: The Fellowship of the Ring", "url": "www.imdb.com/title/tt0120737", "id": "0120737", "directors": ["Peter Jackson"], "location": "Sauron, Yssingeaux, France", "year": 2001, "num_of_locations": 14}}, {"geometry": {"type": "Point", "coordinates": [34.9411209, -16.199242]}, "type": "Feature", "properties": {"rating": 8.8, "genres": ["Adventure", "Drama", "Fantasy"], "marker-color": "0044FF", "marker-symbol": "cinema", "title": "The Lord of the Rings: The Fellowship of the Ring", "url": "www.imdb.com/title/tt0120737", "id": "0120737", "directors": ["Peter Jackson"], "location": "Shire, Chikwawa, Malawi", "year": 2001, "num_of_locations": 14}}, {"geometry": {"type": "Point", "coordinates": [-122.6050099, 47.809763]}, "type": "Feature", "properties": {"rating": 8.8, "genres": ["Adventure", "Drama", "Fantasy"], "marker-color": "0044FF", "marker-symbol": "cinema", "title": "The Lord of the Rings: The Fellowship of the Ring", "url": "www.imdb.com/title/tt0120737", "id": "0120737", "directors": ["Peter Jackson"], "location": "Mordor, Striebels Corner, WA 98364, United States of America", "year": 2001, "num_of_locations": 14}}, {"geometry": {"type": "Point", "coordinates": [-121.8179714, 37.2981007]}, "type": "Feature", "properties": {"rating": 8.8, "genres": ["Adventure", "Drama", "Fantasy"], "marker-color": "0044FF", "marker-symbol": "cinema", "title": "The Lord of the Rings: The Fellowship of the Ring", "url": "www.imdb.com/title/tt0120737", "id": "0120737", "directors": ["Peter Jackson"], "location": "Isengard Drive, San Jos\u00e9, CA 95121, United States of America", "year": 2001, "num_of_locations": 14}}, {"geometry": {"type": "Point", "coordinates": [-10.7762499, 7.19595]}, "type": "Feature", "properties": {"rating": 8.8, "genres": ["Adventure", "Drama", "Fantasy"], "marker-color": "0044FF", "marker-symbol": "cinema", "title": "The Lord of the Rings: The Fellowship of the Ring", "url": "www.imdb.com/title/tt0120737", "id": "0120737", "directors": ["Peter Jackson"], "location": "Gondor Town, Golakonneh, Liberia", "year": 2001, "num_of_locations": 14}}, {"geometry": {"type": "Point", "coordinates": [-0.2291713, 43.3041615]}, "type": "Feature", "properties": {"rating": 8.8, "genres": ["Adventure", "Drama", "Fantasy"], "marker-color": "0044FF", "marker-symbol": "cinema", "title": "The Lord of the Rings: The Fellowship of the Ring", "url": "www.imdb.com/title/tt0120737", "id": "0120737", "directors": ["Peter Jackson"], "location": "64420 Andoins, France", "year": 2001, "num_of_locations": 14}}, {"geometry": {"type": "Point", "coordinates": [134.755, -24.7761085]}, "type": "Feature", "properties": {"rating": 6.1, "genres": ["Action", "Adventure", "Thriller"], "marker-color": "0044FF", "marker-symbol": "cinema", "title": "Mission: Impossible II", "url": "www.imdb.com/title/tt0120755", "id": "0120755", "directors": ["John Woo"], "location": "Australia", "year": 2000, "num_of_locations": 6}}, {"geometry": {"type": "Point", "coordinates": [-5.995317, 37.3886303]}, "type": "Feature", "properties": {"rating": 6.1, "genres": ["Action", "Adventure", "Thriller"], "marker-color": "0044FF", "marker-symbol": "cinema", "title": "Mission: Impossible II", "url": "www.imdb.com/title/tt0120755", "id": "0120755", "directors": ["John Woo"], "location": "Seville, Andalusia, Spain", "year": 2000, "num_of_locations": 6}}, {"geometry": {"type": "Point", "coordinates": [-100.4458824, 39.7837304]}, "type": "Feature", "properties": {"rating": 6.1, "genres": ["Action", "Adventure", "Thriller"], "marker-color": "0044FF", "marker-symbol": "cinema", "title": "Mission: Impossible II", "url": "www.imdb.com/title/tt0120755", "id": "0120755", "directors": ["John Woo"], "location": "United States of America", "year": 2000, "num_of_locations": 6}}, {"geometry": {"type": "Point", "coordinates": [151.2164539, -33.8548156]}, "type": "Feature", "properties": {"rating": 6.1, "genres": ["Action", "Adventure", "Thriller"], "marker-color": "0044FF", "marker-symbol": "cinema", "title": "Mission: Impossible II", "url": "www.imdb.com/title/tt0120755", "id": "0120755", "directors": ["John Woo"], "location": "Sydney, Australia", "year": 2000, "num_of_locations": 6}}, {"geometry": {"type": "Point", "coordinates": [-2.0013174, 51.3338682]}, "type": "Feature", "properties": {"rating": 6.1, "genres": ["Action", "Adventure", "Thriller"], "marker-color": "0044FF", "marker-symbol": "cinema", "title": "Mission: Impossible II", "url": "www.imdb.com/title/tt0120755", "id": "0120755", "directors": ["John Woo"], "location": "Bellerophon, 54 Devizes Road, Potterne SN10, United Kingdom", "year": 2000, "num_of_locations": 6}}, {"geometry": {"type": "Point", "coordinates": [-4.0031039, 40.0028028]}, "type": "Feature", "properties": {"rating": 6.1, "genres": ["Action", "Adventure", "Thriller"], "marker-color": "0044FF", "marker-symbol": "cinema", "title": "Mission: Impossible II", "url": "www.imdb.com/title/tt0120755", "id": "0120755", "directors": ["John Woo"], "location": "Spain", "year": 2000, "num_of_locations": 6}}, {"geometry": {"type": "Point", "coordinates": [-94.9886567, 42.4265969]}, "type": "Feature", "properties": {"rating": 6.7, "genres": ["Action", "Horror", "Sci-Fi"], "marker-color": "0044FF", "marker-symbol": "cinema", "title": "Resident Evil", "url": "www.imdb.com/title/tt0120804", "id": "0120804", "directors": ["Paul W.S. Anderson"], "location": "North Raccoon River, Sac City, Sac County, Iowa, United States of America", "year": 2002, "num_of_locations": 1}}, {"geometry": {"type": "Point", "coordinates": [-107.991707, 61.0666922]}, "type": "Feature", "properties": {"rating": 7.4, "genres": ["Action", "Adventure", "Sci-Fi"], "marker-color": "0044FF", "marker-symbol": "cinema", "title": "X-Men", "url": "www.imdb.com/title/tt0120903", "id": "0120903", "directors": ["Bryan Singer"], "location": "Canada", "year": 2000, "num_of_locations": 5}}, {"geometry": {"type": "Point", "coordinates": [-122.241268, 51.7863205]}, "type": "Feature", "properties": {"rating": 7.4, "genres": ["Action", "Adventure", "Sci-Fi"], "marker-color": "0044FF", "marker-symbol": "cinema", "title": "X-Men", "url": "www.imdb.com/title/tt0120903", "id": "0120903", "directors": ["Bryan Singer"], "location": "Alkali Lake, Cariboo Regional District, Canada", "year": 2000, "num_of_locations": 5}}, {"geometry": {"type": "Point", "coordinates": [-89.7348496, 32.9715645]}, "type": "Feature", "properties": {"rating": 7.4, "genres": ["Action", "Adventure", "Sci-Fi"], "marker-color": "0044FF", "marker-symbol": "cinema", "title": "X-Men", "url": "www.imdb.com/title/tt0120903", "id": "0120903", "directors": ["Bryan Singer"], "location": "Mississippi, United States of America", "year": 2000, "num_of_locations": 5}}, {"geometry": {"type": "Point", "coordinates": [-74.0420185, 40.6985835]}, "type": "Feature", "properties": {"rating": 7.4, "genres": ["Action", "Adventure", "Sci-Fi"], "marker-color": "0044FF", "marker-symbol": "cinema", "title": "X-Men", "url": "www.imdb.com/title/tt0120903", "id": "0120903", "directors": ["Bryan Singer"], "location": "Jersey City, Hudson County, New Jersey, United States of America", "year": 2000, "num_of_locations": 5}}, {"geometry": {"type": "Point", "coordinates": [-74.0451396, 40.689819]}, "type": "Feature", "properties": {"rating": 7.4, "genres": ["Action", "Adventure", "Sci-Fi"], "marker-color": "0044FF", "marker-symbol": "cinema", "title": "X-Men", "url": "www.imdb.com/title/tt0120903", "id": "0120903", "directors": ["Bryan Singer"], "location": "Liberty Island, New York City, New York County, United States of America", "year": 2000, "num_of_locations": 5}}, {"geometry": {"type": "Point", "coordinates": [-102.4107492, 34.2331373]}, "type": "Feature", "properties": {"rating": 6.1, "genres": ["Action", "Adventure", "Comedy", "Family", "Mystery", "Sci-Fi"], "marker-color": "0044FF", "marker-symbol": "cinema", "title": "Men in Black II", "url": "www.imdb.com/title/tt0120912", "id": "0120912", "directors": ["Barry Sonnenfeld"], "location": "Earth, Lamb County, Texas, United States of America", "year": 2002, "num_of_locations": 3}}, {"geometry": {"type": "Point", "coordinates": [-73.9645706, 40.7838462]}, "type": "Feature", "properties": {"rating": 6.1, "genres": ["Action", "Adventure", "Comedy", "Family", "Mystery", "Sci-Fi"], "marker-color": "0044FF", "marker-symbol": "cinema", "title": "Men in Black II", "url": "www.imdb.com/title/tt0120912", "id": "0120912", "directors": ["Barry Sonnenfeld"], "location": "Central Park, Reservoir Running Track, New York City, NY 83, United States of America", "year": 2002, "num_of_locations": 3}}, {"geometry": {"type": "Point", "coordinates": [-73.9645706, 40.7838462]}, "type": "Feature", "properties": {"rating": 6.1, "genres": ["Action", "Adventure", "Comedy", "Family", "Mystery", "Sci-Fi"], "marker-color": "0044FF", "marker-symbol": "cinema", "title": "Men in Black II", "url": "www.imdb.com/title/tt0120912", "id": "0120912", "directors": ["Barry Sonnenfeld"], "location": "Central Park, Reservoir Running Track, New York City, NY 83, United States of America", "year": 2002, "num_of_locations": 3}}, {"geometry": {"type": "Point", "coordinates": [144.6780052, -36.5986095]}, "type": "Feature", "properties": {"rating": 7.4, "genres": ["Animation", "Drama", "Family", "Fantasy", "Musical", "Romance"], "marker-color": "0044FF", "marker-symbol": "cinema", "title": "Corpse Bride", "url": "www.imdb.com/title/tt0121164", "id": "0121164", "directors": ["Tim Burton", "Mike Johnson"], "location": "Victoria, Australia", "year": 2005, "num_of_locations": 1}}, {"geometry": {"type": "Point", "coordinates": [27.2910461, 42.5711572]}, "type": "Feature", "properties": {"rating": 6.6, "genres": ["Action", "Adventure", "Fantasy", "Sci-Fi"], "marker-color": "0044FF", "marker-symbol": "cinema", "title": "Star Wars: Episode II - Attack of the Clones", "url": "www.imdb.com/title/tt0121765", "id": "0121765", "directors": ["George Lucas"], "location": "8120 Kameno, Bulgaria", "year": 2002, "num_of_locations": 6}}, {"geometry": {"type": "Point", "coordinates": [-73.0324935, 44.3518895]}, "type": "Feature", "properties": {"rating": 6.6, "genres": ["Action", "Adventure", "Fantasy", "Sci-Fi"], "marker-color": "0044FF", "marker-symbol": "cinema", "title": "Star Wars: Episode II - Attack of the Clones", "url": "www.imdb.com/title/tt0121765", "id": "0121765", "directors": ["George Lucas"], "location": "Tatooine, Rhode Island Corner, VT, United States of America", "year": 2002, "num_of_locations": 6}}, {"geometry": {"type": "Point", "coordinates": [21.9189778, 48.7579091]}, "type": "Feature", "properties": {"rating": 6.6, "genres": ["Action", "Adventure", "Fantasy", "Sci-Fi"], "marker-color": "0044FF", "marker-symbol": "cinema", "title": "Star Wars: Episode II - Attack of the Clones", "url": "www.imdb.com/title/tt0121765", "id": "0121765", "directors": ["George Lucas"], "location": "Padme, Maxima Gork\u00e9ho, 071 01 Michalovce, Slovakia", "year": 2002, "num_of_locations": 6}}, {"geometry": {"type": "Point", "coordinates": [11.8793009, 43.4725897]}, "type": "Feature", "properties": {"rating": 6.6, "genres": ["Action", "Adventure", "Fantasy", "Sci-Fi"], "marker-color": "0044FF", "marker-symbol": "cinema", "title": "Star Wars: Episode II - Attack of the Clones", "url": "www.imdb.com/title/tt0121765", "id": "0121765", "directors": ["George Lucas"], "location": "Naboo piz. rist., Viale Santa Margherita, 52100 Arezzo AR, Italy", "year": 2002, "num_of_locations": 6}}, {"geometry": {"type": "Point", "coordinates": [-93.48019, 37.12005]}, "type": "Feature", "properties": {"rating": 6.6, "genres": ["Action", "Adventure", "Fantasy", "Sci-Fi"], "marker-color": "0044FF", "marker-symbol": "cinema", "title": "Star Wars: Episode II - Attack of the Clones", "url": "www.imdb.com/title/tt0121765", "id": "0121765", "directors": ["George Lucas"], "location": "Republic, Greene County, Missouri, United States of America", "year": 2002, "num_of_locations": 6}}, {"geometry": {"type": "Point", "coordinates": [6.9118137, 51.7501401]}, "type": "Feature", "properties": {"rating": 6.6, "genres": ["Action", "Adventure", "Fantasy", "Sci-Fi"], "marker-color": "0044FF", "marker-symbol": "cinema", "title": "Star Wars: Episode II - Attack of the Clones", "url": "www.imdb.com/title/tt0121765", "id": "0121765", "directors": ["George Lucas"], "location": "T\u00fcsken Brook, 46286 Dorsten, Germany", "year": 2002, "num_of_locations": 6}}, {"geometry": {"type": "Point", "coordinates": [100.48333, 7.1]}, "type": "Feature", "properties": {"rating": 7.6, "genres": ["Action", "Adventure", "Fantasy", "Sci-Fi"], "marker-color": "0044FF", "marker-symbol": "cinema", "title": "Star Wars: Episode III - Revenge of the Sith", "url": "www.imdb.com/title/tt0121766", "id": "0121766", "directors": ["George Lucas"], "location": "Ban Bon Khao, Songkhla, Thailand", "year": 2005, "num_of_locations": 5}}, {"geometry": {"type": "Point", "coordinates": [-120.90215, 37.63826]}, "type": "Feature", "properties": {"rating": 7.6, "genres": ["Action", "Adventure", "Fantasy", "Sci-Fi"], "marker-color": "0044FF", "marker-symbol": "cinema", "title": "Star Wars: Episode III - Revenge of the Sith", "url": "www.imdb.com/title/tt0121766", "id": "0121766", "directors": ["George Lucas"], "location": "Empire, Stanislaus County, California, United States of America", "year": 2005, "num_of_locations": 5}}, {"geometry": {"type": "Point", "coordinates": [-97.6580833, 39.8266503]}, "type": "Feature", "properties": {"rating": 7.6, "genres": ["Action", "Adventure", "Fantasy", "Sci-Fi"], "marker-color": "0044FF", "marker-symbol": "cinema", "title": "Star Wars: Episode III - Revenge of the Sith", "url": "www.imdb.com/title/tt0121766", "id": "0121766", "directors": ["George Lucas"], "location": "Republic County, Kansas, United States of America", "year": 2005, "num_of_locations": 5}}, {"geometry": {"type": "Point", "coordinates": [114.041851, 22.3141015]}, "type": "Feature", "properties": {"rating": 7.6, "genres": ["Action", "Adventure", "Fantasy", "Sci-Fi"], "marker-color": "0044FF", "marker-symbol": "cinema", "title": "Star Wars: Episode III - Revenge of the Sith", "url": "www.imdb.com/title/tt0121766", "id": "0121766", "directors": ["George Lucas"], "location": "Jedi Training: Trials of the Temple, Parade Route, Penny's Bay, New Territories Hong Kong NT, China", "year": 2005, "num_of_locations": 5}}, {"geometry": {"type": "Point", "coordinates": [21.9189778, 48.7579091]}, "type": "Feature", "properties": {"rating": 7.6, "genres": ["Action", "Adventure", "Fantasy", "Sci-Fi"], "marker-color": "0044FF", "marker-symbol": "cinema", "title": "Star Wars: Episode III - Revenge of the Sith", "url": "www.imdb.com/title/tt0121766", "id": "0121766", "directors": ["George Lucas"], "location": "Padme, Maxima Gork\u00e9ho, 071 01 Michalovce, Slovakia", "year": 2005, "num_of_locations": 5}}, {"geometry": {"type": "Point", "coordinates": [12.674297, 42.6384261]}, "type": "Feature", "properties": {"rating": 6.9, "genres": ["Comedy", "Drama", "Romance"], "marker-color": "0044FF", "marker-symbol": "cinema", "title": "Return to Me", "url": "www.imdb.com/title/tt0122459", "id": "0122459", "directors": ["Bonnie Hunt"], "location": "Italy", "year": 2000, "num_of_locations": 2}}, {"geometry": {"type": "Point", "coordinates": [-87.6244211, 41.8755546]}, "type": "Feature", "properties": {"rating": 6.9, "genres": ["Comedy", "Drama", "Romance"], "marker-color": "0044FF", "marker-symbol": "cinema", "title": "Return to Me", "url": "www.imdb.com/title/tt0122459", "id": "0122459", "directors": ["Bonnie Hunt"], "location": "Chicago, Cook County, Illinois, United States of America", "year": 2000, "num_of_locations": 2}}, {"geometry": {"type": "Point", "coordinates": [-111.2641629, 47.5159037]}, "type": "Feature", "properties": {"rating": 6.7, "genres": ["Drama", "Mystery", "Romance", "Thriller"], "marker-color": "0044FF", "marker-symbol": "cinema", "title": "Waking the Dead", "url": "www.imdb.com/title/tt0127349", "id": "0127349", "directors": ["Keith Gordon"], "location": "Chicago Milwaukee Saint Paul and Pacific Railroad Bridge, Great Falls, MT 59401, United States of America", "year": 2000, "num_of_locations": 4}}, {"geometry": {"type": "Point", "coordinates": [108.4265113, 13.2904027]}, "type": "Feature", "properties": {"rating": 6.7, "genres": ["Drama", "Mystery", "Romance", "Thriller"], "marker-color": "0044FF", "marker-symbol": "cinema", "title": "Waking the Dead", "url": "www.imdb.com/title/tt0127349", "id": "0127349", "directors": ["Keith Gordon"], "location": "Vietnam", "year": 2000, "num_of_locations": 4}}, {"geometry": {"type": "Point", "coordinates": [-71.3187696, -31.7613364]}, "type": "Feature", "properties": {"rating": 6.7, "genres": ["Drama", "Mystery", "Romance", "Thriller"], "marker-color": "0044FF", "marker-symbol": "cinema", "title": "Waking the Dead", "url": "www.imdb.com/title/tt0127349", "id": "0127349", "directors": ["Keith Gordon"], "location": "Chile", "year": 2000, "num_of_locations": 4}}, {"geometry": {"type": "Point", "coordinates": [-87.6244211, 41.8755546]}, "type": "Feature", "properties": {"rating": 6.7, "genres": ["Drama", "Mystery", "Romance", "Thriller"], "marker-color": "0044FF", "marker-symbol": "cinema", "title": "Waking the Dead", "url": "www.imdb.com/title/tt0127349", "id": "0127349", "directors": ["Keith Gordon"], "location": "Chicago, Cook County, Illinois, United States of America", "year": 2000, "num_of_locations": 4}}, {"geometry": {"type": "Point", "coordinates": [73.8569449, 18.5296624]}, "type": "Feature", "properties": {"rating": 6.5, "genres": ["Animation", "Adventure", "Family", "Thriller"], "marker-color": "0044FF", "marker-symbol": "cinema", "title": "Dinosaur", "url": "www.imdb.com/title/tt0130623", "id": "0130623", "directors": ["Eric Leighton", "Ralph Zondag"], "location": "Neera, NH753F, Mangalwar Peth, Pune - 411011, Maharashtra, India", "year": 2000, "num_of_locations": 1}}, {"geometry": {"type": "Point", "coordinates": [-102.4107492, 34.2331373]}, "type": "Feature", "properties": {"rating": 5.7, "genres": ["Action", "Adventure", "Sci-Fi", "Thriller"], "marker-color": "0044FF", "marker-symbol": "cinema", "title": "Planet of the Apes", "url": "www.imdb.com/title/tt0133152", "id": "0133152", "directors": ["Tim Burton"], "location": "Earth, Lamb County, Texas, United States of America", "year": 2001, "num_of_locations": 3}}, {"geometry": {"type": "Point", "coordinates": [-77.0366455, 38.8949549]}, "type": "Feature", "properties": {"rating": 5.7, "genres": ["Action", "Adventure", "Sci-Fi", "Thriller"], "marker-color": "0044FF", "marker-symbol": "cinema", "title": "Planet of the Apes", "url": "www.imdb.com/title/tt0133152", "id": "0133152", "directors": ["Tim Burton"], "location": "Washington, District of Columbia, United States of America", "year": 2001, "num_of_locations": 3}}, {"geometry": {"type": "Point", "coordinates": [-102.3967044, 31.8683534]}, "type": "Feature", "properties": {"rating": 5.7, "genres": ["Action", "Adventure", "Sci-Fi", "Thriller"], "marker-color": "0044FF", "marker-symbol": "cinema", "title": "Planet of the Apes", "url": "www.imdb.com/title/tt0133152", "id": "0133152", "directors": ["Tim Burton"], "location": "Odessa, TX 79769, United States of America", "year": 2001, "num_of_locations": 3}}, {"geometry": {"type": "Point", "coordinates": [-118.7559973, 36.7014631]}, "type": "Feature", "properties": {"rating": 5.5, "genres": ["Horror", "Mystery"], "marker-color": "0044FF", "marker-symbol": "cinema", "title": "Scream 3", "url": "www.imdb.com/title/tt0134084", "id": "0134084", "directors": ["Wes Craven"], "location": "California, United States of America", "year": 2000, "num_of_locations": 4}}, {"geometry": {"type": "Point", "coordinates": [151.2164539, -33.8548156]}, "type": "Feature", "properties": {"rating": 5.5, "genres": ["Horror", "Mystery"], "marker-color": "0044FF", "marker-symbol": "cinema", "title": "Scream 3", "url": "www.imdb.com/title/tt0134084", "id": "0134084", "directors": ["Wes Craven"], "location": "Sydney, Australia", "year": 2000, "num_of_locations": 4}}, {"geometry": {"type": "Point", "coordinates": [-118.2444759, 34.054935]}, "type": "Feature", "properties": {"rating": 5.5, "genres": ["Horror", "Mystery"], "marker-color": "0044FF", "marker-symbol": "cinema", "title": "Scream 3", "url": "www.imdb.com/title/tt0134084", "id": "0134084", "directors": ["Wes Craven"], "location": "Los Angeles, Los Angeles County, California, United States of America", "year": 2000, "num_of_locations": 4}}, {"geometry": {"type": "Point", "coordinates": [-100.8592126, 45.1788983]}, "type": "Feature", "properties": {"rating": 5.5, "genres": ["Horror", "Mystery"], "marker-color": "0044FF", "marker-symbol": "cinema", "title": "Scream 3", "url": "www.imdb.com/title/tt0134084", "id": "0134084", "directors": ["Wes Craven"], "location": "Dewey County, South Dakota, United States of America", "year": 2000, "num_of_locations": 4}}, {"geometry": {"type": "Point", "coordinates": [2.3514992, 48.8566101]}, "type": "Feature", "properties": {"rating": 7.1, "genres": ["Horror", "Sci-Fi"], "marker-color": "0044FF", "marker-symbol": "cinema", "title": "Pitch Black", "url": "www.imdb.com/title/tt0134847", "id": "0134847", "directors": ["David Twohy"], "location": "Paris, France", "year": 2000, "num_of_locations": 2}}, {"geometry": {"type": "Point", "coordinates": [151.2057, -33.8688364]}, "type": "Feature", "properties": {"rating": 7.1, "genres": ["Horror", "Sci-Fi"], "marker-color": "0044FF", "marker-symbol": "cinema", "title": "Pitch Black", "url": "www.imdb.com/title/tt0134847", "id": "0134847", "directors": ["David Twohy"], "location": "Mecca, King Street, Sydney NSW 2000, Australia", "year": 2000, "num_of_locations": 2}}, {"geometry": {"type": "Point", "coordinates": [-123.465384, 63.227706]}, "type": "Feature", "properties": {"rating": 6.3, "genres": ["Comedy", "Crime", "Romance"], "marker-color": "0044FF", "marker-symbol": "cinema", "title": "Intolerable Cruelty", "url": "www.imdb.com/title/tt0138524", "id": "0138524", "directors": ["Joel Coen", "Ethan Coen"], "location": "Wrigley, Northwest Territories, Canada", "year": 2003, "num_of_locations": 5}}, {"geometry": {"type": "Point", "coordinates": [-88.7321584, 45.1895845]}, "type": "Feature", "properties": {"rating": 6.3, "genres": ["Comedy", "Crime", "Romance"], "marker-color": "0044FF", "marker-symbol": "cinema", "title": "Intolerable Cruelty", "url": "www.imdb.com/title/tt0138524", "id": "0138524", "directors": ["Joel Coen", "Ethan Coen"], "location": "U.S., State Highway 55, Langlade, WI 54462, United States of America", "year": 2003, "num_of_locations": 5}}, {"geometry": {"type": "Point", "coordinates": [-115.1492249, 36.1662859]}, "type": "Feature", "properties": {"rating": 6.3, "genres": ["Comedy", "Crime", "Romance"], "marker-color": "0044FF", "marker-symbol": "cinema", "title": "Intolerable Cruelty", "url": "www.imdb.com/title/tt0138524", "id": "0138524", "directors": ["Joel Coen", "Ethan Coen"], "location": "Las Vegas, Clark County, Nevada, United States of America", "year": 2003, "num_of_locations": 5}}, {"geometry": {"type": "Point", "coordinates": [-75.6888389, 4.8180312]}, "type": "Feature", "properties": {"rating": 6.3, "genres": ["Comedy", "Crime", "Romance"], "marker-color": "0044FF", "marker-symbol": "cinema", "title": "Intolerable Cruelty", "url": "www.imdb.com/title/tt0138524", "id": "0138524", "directors": ["Joel Coen", "Ethan Coen"], "location": "America, Pereira, Colombia", "year": 2003, "num_of_locations": 5}}, {"geometry": {"type": "Point", "coordinates": [-118.1720156, 34.0239015]}, "type": "Feature", "properties": {"rating": 6.3, "genres": ["Comedy", "Crime", "Romance"], "marker-color": "0044FF", "marker-symbol": "cinema", "title": "Intolerable Cruelty", "url": "www.imdb.com/title/tt0138524", "id": "0138524", "directors": ["Joel Coen", "Ethan Coen"], "location": "East Los Angeles, Belvedere Gardens, Los Angeles County, California, United States of America", "year": 2003, "num_of_locations": 5}}, {"geometry": {"type": "Point", "coordinates": [-118.24368, 34.05223]}, "type": "Feature", "properties": {"rating": 7.7, "genres": ["Crime", "Drama", "Thriller"], "marker-color": "0044FF", "marker-symbol": "cinema", "title": "Training Day", "url": "www.imdb.com/title/tt0139654", "id": "0139654", "directors": ["Antoine Fuqua"], "location": "Los Angeles, Los Angeles County, California, United States of America", "year": 2001, "num_of_locations": 4}}, {"geometry": {"type": "Point", "coordinates": [-115.1492249, 36.1662859]}, "type": "Feature", "properties": {"rating": 7.7, "genres": ["Crime", "Drama", "Thriller"], "marker-color": "0044FF", "marker-symbol": "cinema", "title": "Training Day", "url": "www.imdb.com/title/tt0139654", "id": "0139654", "directors": ["Antoine Fuqua"], "location": "Las Vegas, Clark County, Nevada, United States of America", "year": 2001, "num_of_locations": 4}}, {"geometry": {"type": "Point", "coordinates": [16.4030359, 48.2653455]}, "type": "Feature", "properties": {"rating": 7.7, "genres": ["Crime", "Drama", "Thriller"], "marker-color": "0044FF", "marker-symbol": "cinema", "title": "Training Day", "url": "www.imdb.com/title/tt0139654", "id": "0139654", "directors": ["Antoine Fuqua"], "location": "Denzel, Br\u00fcnner Stra\u00dfe 62, 1210 Vienna, Austria", "year": 2001, "num_of_locations": 4}}, {"geometry": {"type": "Point", "coordinates": [-76.9650273, 38.9241769]}, "type": "Feature", "properties": {"rating": 7.7, "genres": ["Crime", "Drama", "Thriller"], "marker-color": "0044FF", "marker-symbol": "cinema", "title": "Training Day", "url": "www.imdb.com/title/tt0139654", "id": "0139654", "directors": ["Antoine Fuqua"], "location": "Washington, DC 20018, United States of America", "year": 2001, "num_of_locations": 4}}, {"geometry": {"type": "Point", "coordinates": [-0.5402402, 52.7954791]}, "type": "Feature", "properties": {"rating": 6.6, "genres": ["Action", "War"], "marker-color": "0044FF", "marker-symbol": "cinema", "title": "U-571", "url": "www.imdb.com/title/tt0141926", "id": "0141926", "directors": ["Jonathan Mostow"], "location": "England, United Kingdom", "year": 2000, "num_of_locations": 2}}, {"geometry": {"type": "Point", "coordinates": [-4.7499999, 50.416667]}, "type": "Feature", "properties": {"rating": 6.6, "genres": ["Action", "War"], "marker-color": "0044FF", "marker-symbol": "cinema", "title": "U-571", "url": "www.imdb.com/title/tt0141926", "id": "0141926", "directors": ["Jonathan Mostow"], "location": "Cornwall, England, United Kingdom", "year": 2000, "num_of_locations": 2}}, {"geometry": {"type": "Point", "coordinates": [-73.9962503, 40.7164913]}, "type": "Feature", "properties": {"rating": 7.6, "genres": ["Crime", "Drama"], "marker-color": "0044FF", "marker-symbol": "cinema", "title": "American Psycho", "url": "www.imdb.com/title/tt0144084", "id": "0144084", "directors": ["Mary Harron"], "location": "New York City, NY 10013, United States of America", "year": 2000, "num_of_locations": 5}}, {"geometry": {"type": "Point", "coordinates": [-73.9865811, 40.7305991]}, "type": "Feature", "properties": {"rating": 7.6, "genres": ["Crime", "Drama"], "marker-color": "0044FF", "marker-symbol": "cinema", "title": "American Psycho", "url": "www.imdb.com/title/tt0144084", "id": "0144084", "directors": ["Mary Harron"], "location": "New York City, United States of America", "year": 2000, "num_of_locations": 5}}, {"geometry": {"type": "Point", "coordinates": [-118.0401496, 34.1362075]}, "type": "Feature", "properties": {"rating": 7.6, "genres": ["Crime", "Drama"], "marker-color": "0044FF", "marker-symbol": "cinema", "title": "American Psycho", "url": "www.imdb.com/title/tt0144084", "id": "0144084", "directors": ["Mary Harron"], "location": "Arcadia, Los Angeles County, California, United States of America", "year": 2000, "num_of_locations": 5}}, {"geometry": {"type": "Point", "coordinates": [-73.9865811, 40.7305991]}, "type": "Feature", "properties": {"rating": 7.6, "genres": ["Crime", "Drama"], "marker-color": "0044FF", "marker-symbol": "cinema", "title": "American Psycho", "url": "www.imdb.com/title/tt0144084", "id": "0144084", "directors": ["Mary Harron"], "location": "New York City, United States of America", "year": 2000, "num_of_locations": 5}}, {"geometry": {"type": "Point", "coordinates": [-0.0596552, 51.4571897]}, "type": "Feature", "properties": {"rating": 7.6, "genres": ["Crime", "Drama"], "marker-color": "0044FF", "marker-symbol": "cinema", "title": "American Psycho", "url": "www.imdb.com/title/tt0144084", "id": "0144084", "directors": ["Mary Harron"], "location": "American Garden, Strakers Road, London SE22 0AT, United Kingdom", "year": 2000, "num_of_locations": 5}}, {"geometry": {"type": "Point", "coordinates": [-73.9865811, 40.7305991]}, "type": "Feature", "properties": {"rating": 7.3, "genres": ["Action", "Adventure"], "marker-color": "0044FF", "marker-symbol": "cinema", "title": "Spider-Man", "url": "www.imdb.com/title/tt0145487", "id": "0145487", "directors": ["Sam Raimi"], "location": "New York City, United States of America", "year": 2002, "num_of_locations": 4}}, {"geometry": {"type": "Point", "coordinates": [-73.9865811, 40.7305991]}, "type": "Feature", "properties": {"rating": 7.3, "genres": ["Action", "Adventure"], "marker-color": "0044FF", "marker-symbol": "cinema", "title": "Spider-Man", "url": "www.imdb.com/title/tt0145487", "id": "0145487", "directors": ["Sam Raimi"], "location": "New York City, United States of America", "year": 2002, "num_of_locations": 4}}, {"geometry": {"type": "Point", "coordinates": [-73.9597221, 40.7902778]}, "type": "Feature", "properties": {"rating": 7.3, "genres": ["Action", "Adventure"], "marker-color": "0044FF", "marker-symbol": "cinema", "title": "Spider-Man", "url": "www.imdb.com/title/tt0145487", "id": "0145487", "directors": ["Sam Raimi"], "location": "Manhattan, New York City, New York County, New York, United States of America", "year": 2002, "num_of_locations": 4}}, {"geometry": {"type": "Point", "coordinates": [-122.284257, 47.5585418]}, "type": "Feature", "properties": {"rating": 7.3, "genres": ["Action", "Adventure"], "marker-color": "0044FF", "marker-symbol": "cinema", "title": "Spider-Man", "url": "www.imdb.com/title/tt0145487", "id": "0145487", "directors": ["Sam Raimi"], "location": "Empire, 3829 South Edmunds Street, Seattle, WA 98118, United States of America", "year": 2002, "num_of_locations": 4}}, {"geometry": {"type": "Point", "coordinates": [-102.4107492, 34.2331373]}, "type": "Feature", "properties": {"rating": 5.8, "genres": ["Action", "Adventure", "Fantasy", "Thriller"], "marker-color": "0044FF", "marker-symbol": "cinema", "title": "Lara Croft: Tomb Raider", "url": "www.imdb.com/title/tt0146316", "id": "0146316", "directors": ["Simon West"], "location": "Earth, Lamb County, Texas, United States of America", "year": 2001, "num_of_locations": 5}}, {"geometry": {"type": "Point", "coordinates": [12.3345899, 45.4371908]}, "type": "Feature", "properties": {"rating": 5.8, "genres": ["Action", "Adventure", "Fantasy", "Thriller"], "marker-color": "0044FF", "marker-symbol": "cinema", "title": "Lara Croft: Tomb Raider", "url": "www.imdb.com/title/tt0146316", "id": "0146316", "directors": ["Simon West"], "location": "Venice, VE, Italy", "year": 2001, "num_of_locations": 5}}, {"geometry": {"type": "Point", "coordinates": [-75.9300731, 5.8916829]}, "type": "Feature", "properties": {"rating": 5.8, "genres": ["Action", "Adventure", "Fantasy", "Thriller"], "marker-color": "0044FF", "marker-symbol": "cinema", "title": "Lara Croft: Tomb Raider", "url": "www.imdb.com/title/tt0146316", "id": "0146316", "directors": ["Simon West"], "location": "Siberia, Salgar, Colombia", "year": 2001, "num_of_locations": 5}}, {"geometry": {"type": "Point", "coordinates": [104.869423, 13.5066394]}, "type": "Feature", "properties": {"rating": 5.8, "genres": ["Action", "Adventure", "Fantasy", "Thriller"], "marker-color": "0044FF", "marker-symbol": "cinema", "title": "Lara Croft: Tomb Raider", "url": "www.imdb.com/title/tt0146316", "id": "0146316", "directors": ["Simon West"], "location": "Cambodia", "year": 2001, "num_of_locations": 5}}, {"geometry": {"type": "Point", "coordinates": [34.5731341, 0.5090396]}, "type": "Feature", "properties": {"rating": 5.8, "genres": ["Action", "Adventure", "Fantasy", "Thriller"], "marker-color": "0044FF", "marker-symbol": "cinema", "title": "Lara Croft: Tomb Raider", "url": "www.imdb.com/title/tt0146316", "id": "0146316", "directors": ["Simon West"], "location": "Western, Kenya", "year": 2001, "num_of_locations": 5}}, {"geometry": {"type": "Point", "coordinates": [-100.4458824, 39.7837304]}, "type": "Feature", "properties": {"rating": 5.2, "genres": ["Action", "Adventure", "Comedy", "Sci-Fi", "Thriller"], "marker-color": "0044FF", "marker-symbol": "cinema", "title": "Clockstoppers", "url": "www.imdb.com/title/tt0157472", "id": "0157472", "directors": ["Jonathan Frakes"], "location": "United States of America", "year": 2002, "num_of_locations": 1}}, {"geometry": {"type": "Point", "coordinates": [14.6679465, 43.7021514]}, "type": "Feature", "properties": {"rating": 6.4, "genres": ["Action", "Drama", "Thriller", "War"], "marker-color": "0044FF", "marker-symbol": "cinema", "title": "Behind Enemy Lines", "url": "www.imdb.com/title/tt0159273", "id": "0159273", "directors": ["John Moore"], "location": "Adriatic Sea", "year": 2001, "num_of_locations": 2}}, {"geometry": {"type": "Point", "coordinates": [23.4831155, 49.3548923]}, "type": "Feature", "properties": {"rating": 6.4, "genres": ["Action", "Drama", "Thriller", "War"], "marker-color": "0044FF", "marker-symbol": "cinema", "title": "Behind Enemy Lines", "url": "www.imdb.com/title/tt0159273", "id": "0159273", "directors": ["John Moore"], "location": "Drohobych, 82100-82119, Ukraine", "year": 2001, "num_of_locations": 2}}, {"geometry": {"type": "Point", "coordinates": [-3.7267676, 50.2053525]}, "type": "Feature", "properties": {"rating": 7.2, "genres": ["Adventure", "Drama", "History", "Romance", "War"], "marker-color": "0044FF", "marker-symbol": "cinema", "title": "Cold Mountain", "url": "www.imdb.com/title/tt0159365", "id": "0159365", "directors": ["Anthony Minghella"], "location": "East Prawle, England, United Kingdom", "year": 2003, "num_of_locations": 4}}, {"geometry": {"type": "Point", "coordinates": [11.5270103, 64.574131]}, "type": "Feature", "properties": {"rating": 7.2, "genres": ["Adventure", "Drama", "History", "Romance", "War"], "marker-color": "0044FF", "marker-symbol": "cinema", "title": "Cold Mountain", "url": "www.imdb.com/title/tt0159365", "id": "0159365", "directors": ["Anthony Minghella"], "location": "Norway, Ytterbyvegen, 7810 Nord-Tr\u00f8ndelag", "year": 2003, "num_of_locations": 4}}, {"geometry": {"type": "Point", "coordinates": [30.316229, 59.938732]}, "type": "Feature", "properties": {"rating": 7.2, "genres": ["Adventure", "Drama", "History", "Romance", "War"], "marker-color": "0044FF", "marker-symbol": "cinema", "title": "Cold Mountain", "url": "www.imdb.com/title/tt0159365", "id": "0159365", "directors": ["Anthony Minghella"], "location": "Saint Petersburg, Russian Federation, 190000", "year": 2003, "num_of_locations": 4}}, {"geometry": {"type": "Point", "coordinates": [-79.0392918, 35.6729639]}, "type": "Feature", "properties": {"rating": 7.2, "genres": ["Adventure", "Drama", "History", "Romance", "War"], "marker-color": "0044FF", "marker-symbol": "cinema", "title": "Cold Mountain", "url": "www.imdb.com/title/tt0159365", "id": "0159365", "directors": ["Anthony Minghella"], "location": "North Carolina, United States of America", "year": 2003, "num_of_locations": 4}}, {"geometry": {"type": "Point", "coordinates": [104.999927, 35.000074]}, "type": "Feature", "properties": {"rating": 5.7, "genres": ["Action", "Adventure", "Crime", "Thriller"], "marker-color": "0044FF", "marker-symbol": "cinema", "title": "The Art of War", "url": "www.imdb.com/title/tt0160009", "id": "0160009", "directors": ["Christian Duguay"], "location": "China", "year": 2000, "num_of_locations": 5}}, {"geometry": {"type": "Point", "coordinates": [127.937111, 35.3985008]}, "type": "Feature", "properties": {"rating": 5.7, "genres": ["Action", "Adventure", "Crime", "Thriller"], "marker-color": "0044FF", "marker-symbol": "cinema", "title": "The Art of War", "url": "www.imdb.com/title/tt0160009", "id": "0160009", "directors": ["Christian Duguay"], "location": "South Korea", "year": 2000, "num_of_locations": 5}}, {"geometry": {"type": "Point", "coordinates": [-73.9865811, 40.7305991]}, "type": "Feature", "properties": {"rating": 5.7, "genres": ["Action", "Adventure", "Crime", "Thriller"], "marker-color": "0044FF", "marker-symbol": "cinema", "title": "The Art of War", "url": "www.imdb.com/title/tt0160009", "id": "0160009", "directors": ["Christian Duguay"], "location": "New York City, United States of America", "year": 2000, "num_of_locations": 5}}, {"geometry": {"type": "Point", "coordinates": [114.1628131, 22.2793278]}, "type": "Feature", "properties": {"rating": 5.7, "genres": ["Action", "Adventure", "Crime", "Thriller"], "marker-color": "0044FF", "marker-symbol": "cinema", "title": "The Art of War", "url": "www.imdb.com/title/tt0160009", "id": "0160009", "directors": ["Christian Duguay"], "location": "Hong Kong, Central and Western District, China", "year": 2000, "num_of_locations": 5}}, {"geometry": {"type": "Point", "coordinates": [1.8883335, 46.603354]}, "type": "Feature", "properties": {"rating": 5.7, "genres": ["Action", "Adventure", "Crime", "Thriller"], "marker-color": "0044FF", "marker-symbol": "cinema", "title": "The Art of War", "url": "www.imdb.com/title/tt0160009", "id": "0160009", "directors": ["Christian Duguay"], "location": "France", "year": 2000, "num_of_locations": 5}}, {"geometry": {"type": "Point", "coordinates": [-102.4107492, 34.2331373]}, "type": "Feature", "properties": {"rating": 6.2, "genres": ["Drama", "Mystery", "Sci-Fi", "Thriller"], "marker-color": "0044FF", "marker-symbol": "cinema", "title": "Impostor", "url": "www.imdb.com/title/tt0160399", "id": "0160399", "directors": ["Gary Fleder"], "location": "Earth, Lamb County, Texas, United States of America", "year": 2001, "num_of_locations": 1}}, {"geometry": {"type": "Point", "coordinates": [-72.5002607, 44.5990718]}, "type": "Feature", "properties": {"rating": 6.6, "genres": ["Drama", "Fantasy", "Horror", "Mystery", "Thriller"], "marker-color": "0044FF", "marker-symbol": "cinema", "title": "What Lies Beneath", "url": "www.imdb.com/title/tt0161081", "id": "0161081", "directors": ["Robert Zemeckis"], "location": "Vermont, United States of America", "year": 2000, "num_of_locations": 2}}, {"geometry": {"type": "Point", "coordinates": [-89.3837612, 43.074761]}, "type": "Feature", "properties": {"rating": 6.6, "genres": ["Drama", "Fantasy", "Horror", "Mystery", "Thriller"], "marker-color": "0044FF", "marker-symbol": "cinema", "title": "What Lies Beneath", "url": "www.imdb.com/title/tt0161081", "id": "0161081", "directors": ["Robert Zemeckis"], "location": "Madison, Dane County, Wisconsin, United States of America", "year": 2000, "num_of_locations": 2}}, {"geometry": {"type": "Point", "coordinates": [10.0, 51.0]}, "type": "Feature", "properties": {"rating": 7.7, "genres": ["Biography", "Drama"], "marker-color": "0044FF", "marker-symbol": "cinema", "title": "Nirgendwo in Afrika", "url": "www.imdb.com/title/tt0161860", "id": "0161860", "directors": ["Caroline Link"], "location": "Europe", "year": 2001, "num_of_locations": 5}}, {"geometry": {"type": "Point", "coordinates": [15.9999997, 2.0000003]}, "type": "Feature", "properties": {"rating": 7.7, "genres": ["Biography", "Drama"], "marker-color": "0044FF", "marker-symbol": "cinema", "title": "Nirgendwo in Afrika", "url": "www.imdb.com/title/tt0161860", "id": "0161860", "directors": ["Caroline Link"], "location": "Africa", "year": 2001, "num_of_locations": 5}}, {"geometry": {"type": "Point", "coordinates": [10.4234469, 51.0834196]}, "type": "Feature", "properties": {"rating": 7.7, "genres": ["Biography", "Drama"], "marker-color": "0044FF", "marker-symbol": "cinema", "title": "Nirgendwo in Afrika", "url": "www.imdb.com/title/tt0161860", "id": "0161860", "directors": ["Caroline Link"], "location": "Germany", "year": 2001, "num_of_locations": 5}}, {"geometry": {"type": "Point", "coordinates": [38.4313975, 1.4419683]}, "type": "Feature", "properties": {"rating": 7.7, "genres": ["Biography", "Drama"], "marker-color": "0044FF", "marker-symbol": "cinema", "title": "Nirgendwo in Afrika", "url": "www.imdb.com/title/tt0161860", "id": "0161860", "directors": ["Caroline Link"], "location": "Kenya", "year": 2001, "num_of_locations": 5}}, {"geometry": {"type": "Point", "coordinates": [104.999927, 35.000074]}, "type": "Feature", "properties": {"rating": 7.7, "genres": ["Biography", "Drama"], "marker-color": "0044FF", "marker-symbol": "cinema", "title": "Nirgendwo in Afrika", "url": "www.imdb.com/title/tt0161860", "id": "0161860", "directors": ["Caroline Link"], "location": "China", "year": 2001, "num_of_locations": 5}}, {"geometry": {"type": "Point", "coordinates": [37.6174976, 55.7506828]}, "type": "Feature", "properties": {"rating": 7.7, "genres": ["Adventure", "Drama", "Romance"], "marker-color": "0044FF", "marker-symbol": "cinema", "title": "Cast Away", "url": "www.imdb.com/title/tt0162222", "id": "0162222", "directors": ["Robert Zemeckis"], "location": "Moscow, Central Administrative Okrug, Russian Federation", "year": 2000, "num_of_locations": 8}}, {"geometry": {"type": "Point", "coordinates": [-123.7680289, 46.5334929]}, "type": "Feature", "properties": {"rating": 7.7, "genres": ["Adventure", "Drama", "Romance"], "marker-color": "0044FF", "marker-symbol": "cinema", "title": "Cast Away", "url": "www.imdb.com/title/tt0162222", "id": "0162222", "directors": ["Robert Zemeckis"], "location": "Pacific County, Washington, United States of America", "year": 2000, "num_of_locations": 8}}, {"geometry": {"type": "Point", "coordinates": [101.5919778, 3.0452302]}, "type": "Feature", "properties": {"rating": 7.7, "genres": ["Adventure", "Drama", "Romance"], "marker-color": "0044FF", "marker-symbol": "cinema", "title": "Cast Away", "url": "www.imdb.com/title/tt0162222", "id": "0162222", "directors": ["Robert Zemeckis"], "location": "Malaysia, Persiaran Kewajipan, USJ9, 47200 USJ8, Selangor", "year": 2000, "num_of_locations": 8}}, {"geometry": {"type": "Point", "coordinates": [-86.282008, 35.7730076]}, "type": "Feature", "properties": {"rating": 7.7, "genres": ["Adventure", "Drama", "Romance"], "marker-color": "0044FF", "marker-symbol": "cinema", "title": "Cast Away", "url": "www.imdb.com/title/tt0162222", "id": "0162222", "directors": ["Robert Zemeckis"], "location": "Tennessee, United States of America", "year": 2000, "num_of_locations": 8}}, {"geometry": {"type": "Point", "coordinates": [37.6201162, 55.7542545]}, "type": "Feature", "properties": {"rating": 7.7, "genres": ["Adventure", "Drama", "Romance"], "marker-color": "0044FF", "marker-symbol": "cinema", "title": "Cast Away", "url": "www.imdb.com/title/tt0162222", "id": "0162222", "directors": ["Robert Zemeckis"], "location": "Red Square, Tverskoy District, Moscow, Russian Federation, 109012", "year": 2000, "num_of_locations": 8}}, {"geometry": {"type": "Point", "coordinates": [-90.0516284, 35.1490215]}, "type": "Feature", "properties": {"rating": 7.7, "genres": ["Adventure", "Drama", "Romance"], "marker-color": "0044FF", "marker-symbol": "cinema", "title": "Cast Away", "url": "www.imdb.com/title/tt0162222", "id": "0162222", "directors": ["Robert Zemeckis"], "location": "Memphis, Shelby County, Tennessee, United States of America", "year": 2000, "num_of_locations": 8}}, {"geometry": {"type": "Point", "coordinates": [97.7453061, 64.6863136]}, "type": "Feature", "properties": {"rating": 7.7, "genres": ["Adventure", "Drama", "Romance"], "marker-color": "0044FF", "marker-symbol": "cinema", "title": "Cast Away", "url": "www.imdb.com/title/tt0162222", "id": "0162222", "directors": ["Robert Zemeckis"], "location": "Russian Federation", "year": 2000, "num_of_locations": 8}}, {"geometry": {"type": "Point", "coordinates": [-99.5120985, 31.8160381]}, "type": "Feature", "properties": {"rating": 7.7, "genres": ["Adventure", "Drama", "Romance"], "marker-color": "0044FF", "marker-symbol": "cinema", "title": "Cast Away", "url": "www.imdb.com/title/tt0162222", "id": "0162222", "directors": ["Robert Zemeckis"], "location": "Texas, United States of America", "year": 2000, "num_of_locations": 8}}, {"geometry": {"type": "Point", "coordinates": [-75.6888389, 4.8180312]}, "type": "Feature", "properties": {"rating": 7.4, "genres": ["Comedy", "Drama"], "marker-color": "0044FF", "marker-symbol": "cinema", "title": "Ghost World", "url": "www.imdb.com/title/tt0162346", "id": "0162346", "directors": ["Terry Zwigoff"], "location": "America, Pereira, Colombia", "year": 2001, "num_of_locations": 1}}, {"geometry": {"type": "Point", "coordinates": [-73.9865811, 40.7305991]}, "type": "Feature", "properties": {"rating": 4.8, "genres": ["Comedy", "Drama"], "marker-color": "0044FF", "marker-symbol": "cinema", "title": "Hanging Up", "url": "www.imdb.com/title/tt0162983", "id": "0162983", "directors": ["Diane Keaton"], "location": "New York City, United States of America", "year": 2000, "num_of_locations": 3}}, {"geometry": {"type": "Point", "coordinates": [44.0287382, 41.6809707]}, "type": "Feature", "properties": {"rating": 4.8, "genres": ["Comedy", "Drama"], "marker-color": "0044FF", "marker-symbol": "cinema", "title": "Hanging Up", "url": "www.imdb.com/title/tt0162983", "id": "0162983", "directors": ["Diane Keaton"], "location": "Georgia", "year": 2000, "num_of_locations": 3}}, {"geometry": {"type": "Point", "coordinates": [-118.2444759, 34.054935]}, "type": "Feature", "properties": {"rating": 4.8, "genres": ["Comedy", "Drama"], "marker-color": "0044FF", "marker-symbol": "cinema", "title": "Hanging Up", "url": "www.imdb.com/title/tt0162983", "id": "0162983", "directors": ["Diane Keaton"], "location": "Los Angeles, Los Angeles County, California, United States of America", "year": 2000, "num_of_locations": 3}}, {"geometry": {"type": "Point", "coordinates": [-117.1627713, 32.7174209]}, "type": "Feature", "properties": {"rating": 5.9, "genres": ["Action", "Adventure", "Sci-Fi", "Thriller"], "marker-color": "0044FF", "marker-symbol": "cinema", "title": "Jurassic Park III", "url": "www.imdb.com/title/tt0163025", "id": "0163025", "directors": ["Joe Johnston"], "location": "San Diego, San Diego County, California, United States of America", "year": 2001, "num_of_locations": 3}}, {"geometry": {"type": "Point", "coordinates": [-84.0739101, 10.2735633]}, "type": "Feature", "properties": {"rating": 5.9, "genres": ["Action", "Adventure", "Sci-Fi", "Thriller"], "marker-color": "0044FF", "marker-symbol": "cinema", "title": "Jurassic Park III", "url": "www.imdb.com/title/tt0163025", "id": "0163025", "directors": ["Joe Johnston"], "location": "Costa Rica", "year": 2001, "num_of_locations": 3}}, {"geometry": {"type": "Point", "coordinates": [-81.4735306, 28.4705469]}, "type": "Feature", "properties": {"rating": 5.9, "genres": ["Action", "Adventure", "Sci-Fi", "Thriller"], "marker-color": "0044FF", "marker-symbol": "cinema", "title": "Jurassic Park III", "url": "www.imdb.com/title/tt0163025", "id": "0163025", "directors": ["Joe Johnston"], "location": "Orlando, Orange County, Florida, United States of America", "year": 2001, "num_of_locations": 3}}, {"geometry": {"type": "Point", "coordinates": [103.9999998, 56.0000002]}, "type": "Feature", "properties": {"rating": 6.6, "genres": ["Adventure", "Drama", "Romance", "Thriller"], "marker-color": "0044FF", "marker-symbol": "cinema", "title": "The Beach", "url": "www.imdb.com/title/tt0163978", "id": "0163978", "directors": ["Danny Boyle"], "location": "Asia", "year": 2000, "num_of_locations": 6}}, {"geometry": {"type": "Point", "coordinates": [100.8160803, 13.7538929]}, "type": "Feature", "properties": {"rating": 6.6, "genres": ["Adventure", "Drama", "Romance", "Thriller"], "marker-color": "0044FF", "marker-symbol": "cinema", "title": "The Beach", "url": "www.imdb.com/title/tt0163978", "id": "0163978", "directors": ["Danny Boyle"], "location": "Bangkok, Thailand", "year": 2000, "num_of_locations": 6}}, {"geometry": {"type": "Point", "coordinates": [-72.8002009, 18.2963739]}, "type": "Feature", "properties": {"rating": 6.6, "genres": ["Adventure", "Drama", "Romance", "Thriller"], "marker-color": "0044FF", "marker-symbol": "cinema", "title": "The Beach", "url": "www.imdb.com/title/tt0163978", "id": "0163978", "directors": ["Danny Boyle"], "location": "Etienne, CMRP, Haiti", "year": 2000, "num_of_locations": 6}}, {"geometry": {"type": "Point", "coordinates": [100.0429201, 9.6891128]}, "type": "Feature", "properties": {"rating": 6.6, "genres": ["Adventure", "Drama", "Romance", "Thriller"], "marker-color": "0044FF", "marker-symbol": "cinema", "title": "The Beach", "url": "www.imdb.com/title/tt0163978", "id": "0163978", "directors": ["Danny Boyle"], "location": "Surat Thani Province, Thailand", "year": 2000, "num_of_locations": 6}}, {"geometry": {"type": "Point", "coordinates": [100.83273, 14.8971921]}, "type": "Feature", "properties": {"rating": 6.6, "genres": ["Adventure", "Drama", "Romance", "Thriller"], "marker-color": "0044FF", "marker-symbol": "cinema", "title": "The Beach", "url": "www.imdb.com/title/tt0163978", "id": "0163978", "directors": ["Danny Boyle"], "location": "Thailand", "year": 2000, "num_of_locations": 6}}, {"geometry": {"type": "Point", "coordinates": [102.0, 10.0]}, "type": "Feature", "properties": {"rating": 6.6, "genres": ["Adventure", "Drama", "Romance", "Thriller"], "marker-color": "0044FF", "marker-symbol": "cinema", "title": "The Beach", "url": "www.imdb.com/title/tt0163978", "id": "0163978", "directors": ["Danny Boyle"], "location": "Gulf of Thailand", "year": 2000, "num_of_locations": 6}}, {"geometry": {"type": "Point", "coordinates": [-88.7321584, 45.1895845]}, "type": "Feature", "properties": {"rating": 5.7, "genres": ["Action", "Horror", "Sci-Fi", "Thriller"], "marker-color": "0044FF", "marker-symbol": "cinema", "title": "Hollow Man", "url": "www.imdb.com/title/tt0164052", "id": "0164052", "directors": ["Paul Verhoeven"], "location": "U.S., State Highway 55, Langlade, WI 54462, United States of America", "year": 2000, "num_of_locations": 1}}, {"geometry": {"type": "Point", "coordinates": [10.0, 51.0]}, "type": "Feature", "properties": {"rating": 6.4, "genres": ["Action", "Drama", "Thriller", "War"], "marker-color": "0044FF", "marker-symbol": "cinema", "title": "The Sum of All Fears", "url": "www.imdb.com/title/tt0164184", "id": "0164184", "directors": ["Phil Alden Robinson"], "location": "Europe", "year": 2002, "num_of_locations": 16}}, {"geometry": {"type": "Point", "coordinates": [-77.0365534, 38.8976998]}, "type": "Feature", "properties": {"rating": 6.4, "genres": ["Action", "Drama", "Thriller", "War"], "marker-color": "0044FF", "marker-symbol": "cinema", "title": "The Sum of All Fears", "url": "www.imdb.com/title/tt0164184", "id": "0164184", "directors": ["Phil Alden Robinson"], "location": "White House, 1600 Pennsylvania Avenue Northwest, Washington, DC 20500, United States of America", "year": 2002, "num_of_locations": 16}}, {"geometry": {"type": "Point", "coordinates": [35.0015196, 30.8760272]}, "type": "Feature", "properties": {"rating": 6.4, "genres": ["Action", "Drama", "Thriller", "War"], "marker-color": "0044FF", "marker-symbol": "cinema", "title": "The Sum of All Fears", "url": "www.imdb.com/title/tt0164184", "id": "0164184", "directors": ["Phil Alden Robinson"], "location": "Israel", "year": 2002, "num_of_locations": 16}}, {"geometry": {"type": "Point", "coordinates": [35.7877991, 33.2120673]}, "type": "Feature", "properties": {"rating": 6.4, "genres": ["Action", "Drama", "Thriller", "War"], "marker-color": "0044FF", "marker-symbol": "cinema", "title": "The Sum of All Fears", "url": "www.imdb.com/title/tt0164184", "id": "0164184", "directors": ["Phil Alden Robinson"], "location": "Golan Heights, Bukata, North District, Israel", "year": 2002, "num_of_locations": 16}}, {"geometry": {"type": "Point", "coordinates": [37.6174976, 55.7506828]}, "type": "Feature", "properties": {"rating": 6.4, "genres": ["Action", "Drama", "Thriller", "War"], "marker-color": "0044FF", "marker-symbol": "cinema", "title": "The Sum of All Fears", "url": "www.imdb.com/title/tt0164184", "id": "0164184", "directors": ["Phil Alden Robinson"], "location": "Moscow, Central Administrative Okrug, Russian Federation", "year": 2002, "num_of_locations": 16}}, {"geometry": {"type": "Point", "coordinates": [-77.0366455, 38.8949549]}, "type": "Feature", "properties": {"rating": 6.4, "genres": ["Action", "Drama", "Thriller", "War"], "marker-color": "0044FF", "marker-symbol": "cinema", "title": "The Sum of All Fears", "url": "www.imdb.com/title/tt0164184", "id": "0164184", "directors": ["Phil Alden Robinson"], "location": "Washington, District of Columbia, United States of America", "year": 2002, "num_of_locations": 16}}, {"geometry": {"type": "Point", "coordinates": [-78.492772, 37.1232245]}, "type": "Feature", "properties": {"rating": 6.4, "genres": ["Action", "Drama", "Thriller", "War"], "marker-color": "0044FF", "marker-symbol": "cinema", "title": "The Sum of All Fears", "url": "www.imdb.com/title/tt0164184", "id": "0164184", "directors": ["Phil Alden Robinson"], "location": "Virginia, United States of America", "year": 2002, "num_of_locations": 16}}, {"geometry": {"type": "Point", "coordinates": [-100.4458824, 39.7837304]}, "type": "Feature", "properties": {"rating": 6.4, "genres": ["Action", "Drama", "Thriller", "War"], "marker-color": "0044FF", "marker-symbol": "cinema", "title": "The Sum of All Fears", "url": "www.imdb.com/title/tt0164184", "id": "0164184", "directors": ["Phil Alden Robinson"], "location": "United States of America", "year": 2002, "num_of_locations": 16}}, {"geometry": {"type": "Point", "coordinates": [37.6181738, 55.7514952]}, "type": "Feature", "properties": {"rating": 6.4, "genres": ["Action", "Drama", "Thriller", "War"], "marker-color": "0044FF", "marker-symbol": "cinema", "title": "The Sum of All Fears", "url": "www.imdb.com/title/tt0164184", "id": "0164184", "directors": ["Phil Alden Robinson"], "location": "Moscow Kremlin, Borovitskaya Street, \u041a\u0430\u0434\u0430\u0448\u0451\u0432\u0441\u043a\u0430\u044f \u0441\u043b\u043e\u0431\u043e\u0434\u0430, Moscow, Russian Federation, 103009", "year": 2002, "num_of_locations": 16}}, {"geometry": {"type": "Point", "coordinates": [-100.4458824, 39.7837304]}, "type": "Feature", "properties": {"rating": 6.4, "genres": ["Action", "Drama", "Thriller", "War"], "marker-color": "0044FF", "marker-symbol": "cinema", "title": "The Sum of All Fears", "url": "www.imdb.com/title/tt0164184", "id": "0164184", "directors": ["Phil Alden Robinson"], "location": "United States of America", "year": 2002, "num_of_locations": 16}}, {"geometry": {"type": "Point", "coordinates": [-122.409405, 48.0399806]}, "type": "Feature", "properties": {"rating": 6.4, "genres": ["Action", "Drama", "Thriller", "War"], "marker-color": "0044FF", "marker-symbol": "cinema", "title": "The Sum of All Fears", "url": "www.imdb.com/title/tt0164184", "id": "0164184", "directors": ["Phil Alden Robinson"], "location": "Langley, Island County, Washington, United States of America", "year": 2002, "num_of_locations": 16}}, {"geometry": {"type": "Point", "coordinates": [45.6985005, 43.3976147]}, "type": "Feature", "properties": {"rating": 6.4, "genres": ["Action", "Drama", "Thriller", "War"], "marker-color": "0044FF", "marker-symbol": "cinema", "title": "The Sum of All Fears", "url": "www.imdb.com/title/tt0164184", "id": "0164184", "directors": ["Phil Alden Robinson"], "location": "Chechnya, Russian Federation", "year": 2002, "num_of_locations": 16}}, {"geometry": {"type": "Point", "coordinates": [-113.8467629, 47.277988]}, "type": "Feature", "properties": {"rating": 6.4, "genres": ["Action", "Drama", "Thriller", "War"], "marker-color": "0044FF", "marker-symbol": "cinema", "title": "The Sum of All Fears", "url": "www.imdb.com/title/tt0164184", "id": "0164184", "directors": ["Phil Alden Robinson"], "location": "Weather Peak, Missoula, Missoula County, Montana, United States of America", "year": 2002, "num_of_locations": 16}}, {"geometry": {"type": "Point", "coordinates": [31.2718321, 49.4871968]}, "type": "Feature", "properties": {"rating": 6.4, "genres": ["Action", "Drama", "Thriller", "War"], "marker-color": "0044FF", "marker-symbol": "cinema", "title": "The Sum of All Fears", "url": "www.imdb.com/title/tt0164184", "id": "0164184", "directors": ["Phil Alden Robinson"], "location": "Ukraine", "year": 2002, "num_of_locations": 16}}, {"geometry": {"type": "Point", "coordinates": [97.7453061, 64.6863136]}, "type": "Feature", "properties": {"rating": 6.4, "genres": ["Action", "Drama", "Thriller", "War"], "marker-color": "0044FF", "marker-symbol": "cinema", "title": "The Sum of All Fears", "url": "www.imdb.com/title/tt0164184", "id": "0164184", "directors": ["Phil Alden Robinson"], "location": "Russian Federation", "year": 2002, "num_of_locations": 16}}, {"geometry": {"type": "Point", "coordinates": [16.3725042, 48.2083537]}, "type": "Feature", "properties": {"rating": 6.4, "genres": ["Action", "Drama", "Thriller", "War"], "marker-color": "0044FF", "marker-symbol": "cinema", "title": "The Sum of All Fears", "url": "www.imdb.com/title/tt0164184", "id": "0164184", "directors": ["Phil Alden Robinson"], "location": "Vienna, Austria", "year": 2002, "num_of_locations": 16}}, {"geometry": {"type": "Point", "coordinates": [-66.5841245, 18.2017809]}, "type": "Feature", "properties": {"rating": 6.5, "genres": ["Crime", "Drama", "Thriller"], "marker-color": "0044FF", "marker-symbol": "cinema", "title": "Under Suspicion", "url": "www.imdb.com/title/tt0164212", "id": "0164212", "directors": ["Stephen Hopkins"], "location": "Puerto Rico, United States of America", "year": 2000, "num_of_locations": 1}}, {"geometry": {"type": "Point", "coordinates": [-100.4458824, 39.7837304]}, "type": "Feature", "properties": {"rating": 6.3, "genres": ["Drama", "Thriller"], "marker-color": "0044FF", "marker-symbol": "cinema", "title": "Along Came a Spider", "url": "www.imdb.com/title/tt0164334", "id": "0164334", "directors": ["Lee Tamahori"], "location": "United States of America", "year": 2001, "num_of_locations": 2}}, {"geometry": {"type": "Point", "coordinates": [-77.0366455, 38.8949549]}, "type": "Feature", "properties": {"rating": 6.3, "genres": ["Drama", "Thriller"], "marker-color": "0044FF", "marker-symbol": "cinema", "title": "Along Came a Spider", "url": "www.imdb.com/title/tt0164334", "id": "0164334", "directors": ["Lee Tamahori"], "location": "Washington, District of Columbia, United States of America", "year": 2001, "num_of_locations": 2}}, {"geometry": {"type": "Point", "coordinates": [2.3514992, 48.8566101]}, "type": "Feature", "properties": {"rating": 6.5, "genres": ["Action", "Crime", "Fantasy", "Mystery", "Sci-Fi", "Thriller"], "marker-color": "0044FF", "marker-symbol": "cinema", "title": "Vidocq", "url": "www.imdb.com/title/tt0164961", "id": "0164961", "directors": ["Pitof"], "location": "Paris, France", "year": 2001, "num_of_locations": 1}}, {"geometry": {"type": "Point", "coordinates": [-75.6888389, 4.8180312]}, "type": "Feature", "properties": {"rating": 7.7, "genres": ["Adventure", "Comedy", "Drama", "Fantasy"], "marker-color": "0044FF", "marker-symbol": "cinema", "title": "Interstate 60: Episodes of the Road", "url": "www.imdb.com/title/tt0165832", "id": "0165832", "directors": ["Bob Gale"], "location": "America, Pereira, Colombia", "year": 2002, "num_of_locations": 2}}, {"geometry": {"type": "Point", "coordinates": [-104.8202459, 41.139981]}, "type": "Feature", "properties": {"rating": 7.7, "genres": ["Adventure", "Comedy", "Drama", "Fantasy"], "marker-color": "0044FF", "marker-symbol": "cinema", "title": "Interstate 60: Episodes of the Road", "url": "www.imdb.com/title/tt0165832", "id": "0165832", "directors": ["Bob Gale"], "location": "Cheyenne, Laramie County, Wyoming, United States of America", "year": 2002, "num_of_locations": 2}}, {"geometry": {"type": "Point", "coordinates": [114.1628131, 22.2793278]}, "type": "Feature", "properties": {"rating": 6.1, "genres": ["Action", "Crime", "Thriller"], "marker-color": "0044FF", "marker-symbol": "cinema", "title": "Romeo Must Die", "url": "www.imdb.com/title/tt0165929", "id": "0165929", "directors": ["Andrzej Bartkowiak"], "location": "Hong Kong, Central and Western District, China", "year": 2000, "num_of_locations": 1}}, {"geometry": {"type": "Point", "coordinates": [-107.991707, 61.0666922]}, "type": "Feature", "properties": {"rating": 8.0, "genres": ["Drama", "Mystery", "Thriller"], "marker-color": "0044FF", "marker-symbol": "cinema", "title": "Mulholland Dr.", "url": "www.imdb.com/title/tt0166924", "id": "0166924", "directors": ["David Lynch"], "location": "Canada", "year": 2001, "num_of_locations": 7}}, {"geometry": {"type": "Point", "coordinates": [-86.0009769, 50.000678]}, "type": "Feature", "properties": {"rating": 8.0, "genres": ["Drama", "Mystery", "Thriller"], "marker-color": "0044FF", "marker-symbol": "cinema", "title": "Mulholland Dr.", "url": "www.imdb.com/title/tt0166924", "id": "0166924", "directors": ["David Lynch"], "location": "Ontario, Canada", "year": 2001, "num_of_locations": 7}}, {"geometry": {"type": "Point", "coordinates": [-101.9188, 34.98033]}, "type": "Feature", "properties": {"rating": 8.0, "genres": ["Drama", "Mystery", "Thriller"], "marker-color": "0044FF", "marker-symbol": "cinema", "title": "Mulholland Dr.", "url": "www.imdb.com/title/tt0166924", "id": "0166924", "directors": ["David Lynch"], "location": "Canyon, Randall County, Texas, United States of America", "year": 2001, "num_of_locations": 7}}, {"geometry": {"type": "Point", "coordinates": [-79.2027679, 35.558037]}, "type": "Feature", "properties": {"rating": 8.0, "genres": ["Drama", "Mystery", "Thriller"], "marker-color": "0044FF", "marker-symbol": "cinema", "title": "Mulholland Dr.", "url": "www.imdb.com/title/tt0166924", "id": "0166924", "directors": ["David Lynch"], "location": "Deep River, Lee County, North Carolina, United States of America", "year": 2001, "num_of_locations": 7}}, {"geometry": {"type": "Point", "coordinates": [-118.2444759, 34.054935]}, "type": "Feature", "properties": {"rating": 8.0, "genres": ["Drama", "Mystery", "Thriller"], "marker-color": "0044FF", "marker-symbol": "cinema", "title": "Mulholland Dr.", "url": "www.imdb.com/title/tt0166924", "id": "0166924", "directors": ["David Lynch"], "location": "Los Angeles, Los Angeles County, California, United States of America", "year": 2001, "num_of_locations": 7}}, {"geometry": {"type": "Point", "coordinates": [-118.3645092, 34.1286162]}, "type": "Feature", "properties": {"rating": 8.0, "genres": ["Drama", "Mystery", "Thriller"], "marker-color": "0044FF", "marker-symbol": "cinema", "title": "Mulholland Dr.", "url": "www.imdb.com/title/tt0166924", "id": "0166924", "directors": ["David Lynch"], "location": "Mulholland Drive, Los Angeles, CA 90046, United States of America", "year": 2001, "num_of_locations": 7}}, {"geometry": {"type": "Point", "coordinates": [-118.3299898, 34.1028268]}, "type": "Feature", "properties": {"rating": 8.0, "genres": ["Drama", "Mystery", "Thriller"], "marker-color": "0044FF", "marker-symbol": "cinema", "title": "Mulholland Dr.", "url": "www.imdb.com/title/tt0166924", "id": "0166924", "directors": ["David Lynch"], "location": "Hollywood, Los Angeles, Los Angeles County, California, United States of America", "year": 2001, "num_of_locations": 7}}, {"geometry": {"type": "Point", "coordinates": [-4.1140517, 56.7861112]}, "type": "Feature", "properties": {"rating": 6.8, "genres": ["Action", "Fantasy", "Horror", "Sci-Fi"], "marker-color": "0044FF", "marker-symbol": "cinema", "title": "Hellboy", "url": "www.imdb.com/title/tt0167190", "id": "0167190", "directors": ["Guillermo del Toro"], "location": "Scotland, United Kingdom", "year": 2004, "num_of_locations": 1}}, {"geometry": {"type": "Point", "coordinates": [-121.8179714, 37.2981007]}, "type": "Feature", "properties": {"rating": 8.9, "genres": ["Adventure", "Drama", "Fantasy"], "marker-color": "0044FF", "marker-symbol": "cinema", "title": "The Lord of the Rings: The Return of the King", "url": "www.imdb.com/title/tt0167260", "id": "0167260", "directors": ["Peter Jackson"], "location": "Isengard Drive, San Jos\u00e9, CA 95121, United States of America", "year": 2003, "num_of_locations": 10}}, {"geometry": {"type": "Point", "coordinates": [14.054722, 50.797555]}, "type": "Feature", "properties": {"rating": 8.9, "genres": ["Adventure", "Drama", "Fantasy"], "marker-color": "0044FF", "marker-symbol": "cinema", "title": "The Lord of the Rings: The Return of the King", "url": "www.imdb.com/title/tt0167260", "id": "0167260", "directors": ["Peter Jackson"], "location": "Glum, J\u00edlov\u00e9, okres D\u011b\u010d\u00edn, Czechia", "year": 2003, "num_of_locations": 10}}, {"geometry": {"type": "Point", "coordinates": [-76.5168988, 38.3242916]}, "type": "Feature", "properties": {"rating": 8.9, "genres": ["Adventure", "Drama", "Fantasy"], "marker-color": "0044FF", "marker-symbol": "cinema", "title": "The Lord of the Rings: The Return of the King", "url": "www.imdb.com/title/tt0167260", "id": "0167260", "directors": ["Peter Jackson"], "location": "Middle Earth, Saint Mary's County, Maryland, United States of America", "year": 2003, "num_of_locations": 10}}, {"geometry": {"type": "Point", "coordinates": [5.5425385, 51.4103978]}, "type": "Feature", "properties": {"rating": 8.9, "genres": ["Adventure", "Drama", "Fantasy"], "marker-color": "0044FF", "marker-symbol": "cinema", "title": "The Lord of the Rings: The Return of the King", "url": "www.imdb.com/title/tt0167260", "id": "0167260", "directors": ["Peter Jackson"], "location": "Fangorn, 5661 Geldrop-Mierlo, The Netherlands", "year": 2003, "num_of_locations": 10}}, {"geometry": {"type": "Point", "coordinates": [5.478982, 51.4373904]}, "type": "Feature", "properties": {"rating": 8.9, "genres": ["Adventure", "Drama", "Fantasy"], "marker-color": "0044FF", "marker-symbol": "cinema", "title": "The Lord of the Rings: The Return of the King", "url": "www.imdb.com/title/tt0167260", "id": "0167260", "directors": ["Peter Jackson"], "location": "Smeagol, Kerkstraat 10, 5611 GJ Eindhoven, The Netherlands", "year": 2003, "num_of_locations": 10}}, {"geometry": {"type": "Point", "coordinates": [0.6011673, 51.6400946]}, "type": "Feature", "properties": {"rating": 8.9, "genres": ["Adventure", "Drama", "Fantasy"], "marker-color": "0044FF", "marker-symbol": "cinema", "title": "The Lord of the Rings: The Return of the King", "url": "www.imdb.com/title/tt0167260", "id": "0167260", "directors": ["Peter Jackson"], "location": "Gladden Fields, Chelmsford CM3 5WX, United Kingdom", "year": 2003, "num_of_locations": 10}}, {"geometry": {"type": "Point", "coordinates": [150.8233495, -33.8819097]}, "type": "Feature", "properties": {"rating": 8.9, "genres": ["Adventure", "Drama", "Fantasy"], "marker-color": "0044FF", "marker-symbol": "cinema", "title": "The Lord of the Rings: The Return of the King", "url": "www.imdb.com/title/tt0167260", "id": "0167260", "directors": ["Peter Jackson"], "location": "Treebeard, 6km Loop, Cecil Park NSW 2178, Australia", "year": 2003, "num_of_locations": 10}}, {"geometry": {"type": "Point", "coordinates": [5.5470211, 51.4140568]}, "type": "Feature", "properties": {"rating": 8.9, "genres": ["Adventure", "Drama", "Fantasy"], "marker-color": "0044FF", "marker-symbol": "cinema", "title": "The Lord of the Rings: The Return of the King", "url": "www.imdb.com/title/tt0167260", "id": "0167260", "directors": ["Peter Jackson"], "location": "Aragorn, 5661 Geldrop-Mierlo, The Netherlands", "year": 2003, "num_of_locations": 10}}, {"geometry": {"type": "Point", "coordinates": [-76.5719084, 39.0773322]}, "type": "Feature", "properties": {"rating": 8.9, "genres": ["Adventure", "Drama", "Fantasy"], "marker-color": "0044FF", "marker-symbol": "cinema", "title": "The Lord of the Rings: The Return of the King", "url": "www.imdb.com/title/tt0167260", "id": "0167260", "directors": ["Peter Jackson"], "location": "Rivendell, Anne Arundel County, Maryland, United States of America", "year": 2003, "num_of_locations": 10}}, {"geometry": {"type": "Point", "coordinates": [5.5528316, 51.4122543]}, "type": "Feature", "properties": {"rating": 8.9, "genres": ["Adventure", "Drama", "Fantasy"], "marker-color": "0044FF", "marker-symbol": "cinema", "title": "The Lord of the Rings: The Return of the King", "url": "www.imdb.com/title/tt0167260", "id": "0167260", "directors": ["Peter Jackson"], "location": "Elendil, 5664 Geldrop-Mierlo, The Netherlands", "year": 2003, "num_of_locations": 10}}, {"geometry": {"type": "Point", "coordinates": [-96.7932892, 33.0397395]}, "type": "Feature", "properties": {"rating": 8.7, "genres": ["Adventure", "Drama", "Fantasy"], "marker-color": "0044FF", "marker-symbol": "cinema", "title": "The Lord of the Rings: The Two Towers", "url": "www.imdb.com/title/tt0167261", "id": "0167261", "directors": ["Peter Jackson"], "location": "Dunland Drive, Plano, TX 75093, United States of America", "year": 2002, "num_of_locations": 10}}, {"geometry": {"type": "Point", "coordinates": [-121.8179714, 37.2981007]}, "type": "Feature", "properties": {"rating": 8.7, "genres": ["Adventure", "Drama", "Fantasy"], "marker-color": "0044FF", "marker-symbol": "cinema", "title": "The Lord of the Rings: The Two Towers", "url": "www.imdb.com/title/tt0167261", "id": "0167261", "directors": ["Peter Jackson"], "location": "Isengard Drive, San Jos\u00e9, CA 95121, United States of America", "year": 2002, "num_of_locations": 10}}, {"geometry": {"type": "Point", "coordinates": [-4.6454445, 48.0358587]}, "type": "Feature", "properties": {"rating": 8.7, "genres": ["Adventure", "Drama", "Fantasy"], "marker-color": "0044FF", "marker-symbol": "cinema", "title": "The Lord of the Rings: The Two Towers", "url": "www.imdb.com/title/tt0167261", "id": "0167261", "directors": ["Peter Jackson"], "location": "Le Rhun, Quimper, France", "year": 2002, "num_of_locations": 10}}, {"geometry": {"type": "Point", "coordinates": [14.054722, 50.797555]}, "type": "Feature", "properties": {"rating": 8.7, "genres": ["Adventure", "Drama", "Fantasy"], "marker-color": "0044FF", "marker-symbol": "cinema", "title": "The Lord of the Rings: The Two Towers", "url": "www.imdb.com/title/tt0167261", "id": "0167261", "directors": ["Peter Jackson"], "location": "Glum, J\u00edlov\u00e9, okres D\u011b\u010d\u00edn, Czechia", "year": 2002, "num_of_locations": 10}}, {"geometry": {"type": "Point", "coordinates": [-122.2723751, 37.8551575]}, "type": "Feature", "properties": {"rating": 8.7, "genres": ["Adventure", "Drama", "Fantasy"], "marker-color": "0044FF", "marker-symbol": "cinema", "title": "The Lord of the Rings: The Two Towers", "url": "www.imdb.com/title/tt0167261", "id": "0167261", "directors": ["Peter Jackson"], "location": "Berkeley, CA 94703, United States of America", "year": 2002, "num_of_locations": 10}}, {"geometry": {"type": "Point", "coordinates": [5.5425385, 51.4103978]}, "type": "Feature", "properties": {"rating": 8.7, "genres": ["Adventure", "Drama", "Fantasy"], "marker-color": "0044FF", "marker-symbol": "cinema", "title": "The Lord of the Rings: The Two Towers", "url": "www.imdb.com/title/tt0167261", "id": "0167261", "directors": ["Peter Jackson"], "location": "Fangorn, 5661 Geldrop-Mierlo, The Netherlands", "year": 2002, "num_of_locations": 10}}, {"geometry": {"type": "Point", "coordinates": [-123.3471328, 49.3755066]}, "type": "Feature", "properties": {"rating": 8.7, "genres": ["Adventure", "Drama", "Fantasy"], "marker-color": "0044FF", "marker-symbol": "cinema", "title": "The Lord of the Rings: The Two Towers", "url": "www.imdb.com/title/tt0167261", "id": "0167261", "directors": ["Peter Jackson"], "location": "Eowyn Trail, Bowen Island, BC V0N 1G0, Canada", "year": 2002, "num_of_locations": 10}}, {"geometry": {"type": "Point", "coordinates": [135.9844712, -1.676892]}, "type": "Feature", "properties": {"rating": 8.7, "genres": ["Adventure", "Drama", "Fantasy"], "marker-color": "0044FF", "marker-symbol": "cinema", "title": "The Lord of the Rings: The Two Towers", "url": "www.imdb.com/title/tt0167261", "id": "0167261", "directors": ["Peter Jackson"], "location": "Saruman, Papua, Indonesia", "year": 2002, "num_of_locations": 10}}, {"geometry": {"type": "Point", "coordinates": [150.8233495, -33.8819097]}, "type": "Feature", "properties": {"rating": 8.7, "genres": ["Adventure", "Drama", "Fantasy"], "marker-color": "0044FF", "marker-symbol": "cinema", "title": "The Lord of the Rings: The Two Towers", "url": "www.imdb.com/title/tt0167261", "id": "0167261", "directors": ["Peter Jackson"], "location": "Treebeard, 6km Loop, Cecil Park NSW 2178, Australia", "year": 2002, "num_of_locations": 10}}, {"geometry": {"type": "Point", "coordinates": [5.5470211, 51.4140568]}, "type": "Feature", "properties": {"rating": 8.7, "genres": ["Adventure", "Drama", "Fantasy"], "marker-color": "0044FF", "marker-symbol": "cinema", "title": "The Lord of the Rings: The Two Towers", "url": "www.imdb.com/title/tt0167261", "id": "0167261", "directors": ["Peter Jackson"], "location": "Aragorn, 5661 Geldrop-Mierlo, The Netherlands", "year": 2002, "num_of_locations": 10}}, {"geometry": {"type": "Point", "coordinates": [-87.0207472, 32.4078632]}, "type": "Feature", "properties": {"rating": 8.0, "genres": ["Crime", "Drama", "Musical"], "marker-color": "0044FF", "marker-symbol": "cinema", "title": "Dancer in the Dark", "url": "www.imdb.com/title/tt0168629", "id": "0168629", "directors": ["Lars von Trier"], "location": "Selma, Dallas County, Alabama, United States of America", "year": 2000, "num_of_locations": 2}}, {"geometry": {"type": "Point", "coordinates": [-77.0366455, 38.8949549]}, "type": "Feature", "properties": {"rating": 8.0, "genres": ["Crime", "Drama", "Musical"], "marker-color": "0044FF", "marker-symbol": "cinema", "title": "Dancer in the Dark", "url": "www.imdb.com/title/tt0168629", "id": "0168629", "directors": ["Lars von Trier"], "location": "Washington, District of Columbia, United States of America", "year": 2000, "num_of_locations": 2}}, {"geometry": {"type": "Point", "coordinates": [-123.1268742, 49.7067469]}, "type": "Feature", "properties": {"rating": 6.0, "genres": ["Comedy", "Family", "Fantasy"], "marker-color": "0044FF", "marker-symbol": "cinema", "title": "How the Grinch Stole Christmas", "url": "www.imdb.com/title/tt0170016", "id": "0170016", "directors": ["Ron Howard"], "location": "Crumpit Woods Drive, Squamish, BC V8B 0B7, Canada", "year": 2000, "num_of_locations": 4}}, {"geometry": {"type": "Point", "coordinates": [7.30574, 48.34266]}, "type": "Feature", "properties": {"rating": 6.0, "genres": ["Comedy", "Family", "Fantasy"], "marker-color": "0044FF", "marker-symbol": "cinema", "title": "How the Grinch Stole Christmas", "url": "www.imdb.com/title/tt0170016", "id": "0170016", "directors": ["Ron Howard"], "location": "Vill\u00e9, Bas-Rhin, France", "year": 2000, "num_of_locations": 4}}, {"geometry": {"type": "Point", "coordinates": [7.30574, 48.34266]}, "type": "Feature", "properties": {"rating": 6.0, "genres": ["Comedy", "Family", "Fantasy"], "marker-color": "0044FF", "marker-symbol": "cinema", "title": "How the Grinch Stole Christmas", "url": "www.imdb.com/title/tt0170016", "id": "0170016", "directors": ["Ron Howard"], "location": "Vill\u00e9, Bas-Rhin, France", "year": 2000, "num_of_locations": 4}}, {"geometry": {"type": "Point", "coordinates": [9.3005709, 45.6039807]}, "type": "Feature", "properties": {"rating": 6.0, "genres": ["Comedy", "Family", "Fantasy"], "marker-color": "0044FF", "marker-symbol": "cinema", "title": "How the Grinch Stole Christmas", "url": "www.imdb.com/title/tt0170016", "id": "0170016", "directors": ["Ron Howard"], "location": "Villasanta, Monza and Brianza, Italy", "year": 2000, "num_of_locations": 4}}, {"geometry": {"type": "Point", "coordinates": [-93.2054395, 31.0465776]}, "type": "Feature", "properties": {"rating": 7.0, "genres": ["Drama", "War"], "marker-color": "0044FF", "marker-symbol": "cinema", "title": "Tigerland", "url": "www.imdb.com/title/tt0170691", "id": "0170691", "directors": ["Joel Schumacher"], "location": "Fort Polk, Vernon Parish, Louisiana, United States of America", "year": 2000, "num_of_locations": 5}}, {"geometry": {"type": "Point", "coordinates": [-88.7321584, 45.1895845]}, "type": "Feature", "properties": {"rating": 7.0, "genres": ["Drama", "War"], "marker-color": "0044FF", "marker-symbol": "cinema", "title": "Tigerland", "url": "www.imdb.com/title/tt0170691", "id": "0170691", "directors": ["Joel Schumacher"], "location": "U.S., State Highway 55, Langlade, WI 54462, United States of America", "year": 2000, "num_of_locations": 5}}, {"geometry": {"type": "Point", "coordinates": [108.4265113, 13.2904027]}, "type": "Feature", "properties": {"rating": 7.0, "genres": ["Drama", "War"], "marker-color": "0044FF", "marker-symbol": "cinema", "title": "Tigerland", "url": "www.imdb.com/title/tt0170691", "id": "0170691", "directors": ["Joel Schumacher"], "location": "Vietnam", "year": 2000, "num_of_locations": 5}}, {"geometry": {"type": "Point", "coordinates": [-92.0071259, 30.8703881]}, "type": "Feature", "properties": {"rating": 7.0, "genres": ["Drama", "War"], "marker-color": "0044FF", "marker-symbol": "cinema", "title": "Tigerland", "url": "www.imdb.com/title/tt0170691", "id": "0170691", "directors": ["Joel Schumacher"], "location": "Louisiana, United States of America", "year": 2000, "num_of_locations": 5}}, {"geometry": {"type": "Point", "coordinates": [-91.1802616, 30.3945334]}, "type": "Feature", "properties": {"rating": 7.0, "genres": ["Drama", "War"], "marker-color": "0044FF", "marker-symbol": "cinema", "title": "Tigerland", "url": "www.imdb.com/title/tt0170691", "id": "0170691", "directors": ["Joel Schumacher"], "location": "Tigerland, Baton Rouge, LA 70803, United States of America", "year": 2000, "num_of_locations": 5}}, {"geometry": {"type": "Point", "coordinates": [-111.7632754, 34.395342]}, "type": "Feature", "properties": {"rating": 6.2, "genres": ["Comedy", "Crime", "Drama", "Romance"], "marker-color": "0044FF", "marker-symbol": "cinema", "title": "Nurse Betty", "url": "www.imdb.com/title/tt0171580", "id": "0171580", "directors": ["Neil LaBute"], "location": "Arizona, United States of America", "year": 2000, "num_of_locations": 5}}, {"geometry": {"type": "Point", "coordinates": [-98.5821871, 38.27312]}, "type": "Feature", "properties": {"rating": 6.2, "genres": ["Comedy", "Crime", "Drama", "Romance"], "marker-color": "0044FF", "marker-symbol": "cinema", "title": "Nurse Betty", "url": "www.imdb.com/title/tt0171580", "id": "0171580", "directors": ["Neil LaBute"], "location": "Kansas, United States of America", "year": 2000, "num_of_locations": 5}}, {"geometry": {"type": "Point", "coordinates": [-94.5630297, 39.0844687]}, "type": "Feature", "properties": {"rating": 6.2, "genres": ["Comedy", "Crime", "Drama", "Romance"], "marker-color": "0044FF", "marker-symbol": "cinema", "title": "Nurse Betty", "url": "www.imdb.com/title/tt0171580", "id": "0171580", "directors": ["Neil LaBute"], "location": "Kansas City, Jackson County, Missouri, United States of America", "year": 2000, "num_of_locations": 5}}, {"geometry": {"type": "Point", "coordinates": [1.215829, 6.130419]}, "type": "Feature", "properties": {"rating": 6.2, "genres": ["Comedy", "Crime", "Drama", "Romance"], "marker-color": "0044FF", "marker-symbol": "cinema", "title": "Nurse Betty", "url": "www.imdb.com/title/tt0171580", "id": "0171580", "directors": ["Neil LaBute"], "location": "Lom\u00e9, Togo", "year": 2000, "num_of_locations": 5}}, {"geometry": {"type": "Point", "coordinates": [-118.2444759, 34.054935]}, "type": "Feature", "properties": {"rating": 6.2, "genres": ["Comedy", "Crime", "Drama", "Romance"], "marker-color": "0044FF", "marker-symbol": "cinema", "title": "Nurse Betty", "url": "www.imdb.com/title/tt0171580", "id": "0171580", "directors": ["Neil LaBute"], "location": "Los Angeles, Los Angeles County, California, United States of America", "year": 2000, "num_of_locations": 5}}, {"geometry": {"type": "Point", "coordinates": [-80.1936588, 25.7742658]}, "type": "Feature", "properties": {"rating": 6.6, "genres": ["Action", "Comedy", "Crime", "Thriller"], "marker-color": "0044FF", "marker-symbol": "cinema", "title": "Bad Boys II", "url": "www.imdb.com/title/tt0172156", "id": "0172156", "directors": ["Michael Bay"], "location": "Miami, Miami-Dade County, Florida, United States of America", "year": 2003, "num_of_locations": 1}}, {"geometry": {"type": "Point", "coordinates": [43.7649329, 34.5168906]}, "type": "Feature", "properties": {"rating": 8.5, "genres": ["Action", "Adventure", "Drama"], "marker-color": "0044FF", "marker-symbol": "cinema", "title": "Gladiator", "url": "www.imdb.com/title/tt0172495", "id": "0172495", "directors": ["Ridley Scott"], "location": "Tigris, Saladin, Iraq", "year": 2000, "num_of_locations": 8}}, {"geometry": {"type": "Point", "coordinates": [12.4930871, 41.8902614]}, "type": "Feature", "properties": {"rating": 8.5, "genres": ["Action", "Adventure", "Drama"], "marker-color": "0044FF", "marker-symbol": "cinema", "title": "Gladiator", "url": "www.imdb.com/title/tt0172495", "id": "0172495", "directors": ["Ridley Scott"], "location": "Colosseum, Piazza del Colosseo, 00184 Rome RM, Italy", "year": 2000, "num_of_locations": 8}}, {"geometry": {"type": "Point", "coordinates": [10.330441, 36.851627]}, "type": "Feature", "properties": {"rating": 8.5, "genres": ["Action", "Adventure", "Drama"], "marker-color": "0044FF", "marker-symbol": "cinema", "title": "Gladiator", "url": "www.imdb.com/title/tt0172495", "id": "0172495", "directors": ["Ridley Scott"], "location": "Carthage, \u0642\u0631\u0637\u0627\u062c \u0627\u0644\u0634\u0627\u0637\u0626, Tunisia", "year": 2000, "num_of_locations": 8}}, {"geometry": {"type": "Point", "coordinates": [31.5951655, 4.8472017]}, "type": "Feature", "properties": {"rating": 8.5, "genres": ["Action", "Adventure", "Drama"], "marker-color": "0044FF", "marker-symbol": "cinema", "title": "Gladiator", "url": "www.imdb.com/title/tt0172495", "id": "0172495", "directors": ["Ridley Scott"], "location": "Juba, Central Equatoria, South Sudan", "year": 2000, "num_of_locations": 8}}, {"geometry": {"type": "Point", "coordinates": [-64.2033099, -31.4591104]}, "type": "Feature", "properties": {"rating": 8.5, "genres": ["Action", "Adventure", "Drama"], "marker-color": "0044FF", "marker-symbol": "cinema", "title": "Gladiator", "url": "www.imdb.com/title/tt0172495", "id": "0172495", "directors": ["Ridley Scott"], "location": "Ostia, Irup\u00e9, X5000 C\u00f3rdoba, Argentina", "year": 2000, "num_of_locations": 8}}, {"geometry": {"type": "Point", "coordinates": [1.215829, 6.130419]}, "type": "Feature", "properties": {"rating": 8.5, "genres": ["Action", "Adventure", "Drama"], "marker-color": "0044FF", "marker-symbol": "cinema", "title": "Gladiator", "url": "www.imdb.com/title/tt0172495", "id": "0172495", "directors": ["Ridley Scott"], "location": "Lom\u00e9, Togo", "year": 2000, "num_of_locations": 8}}, {"geometry": {"type": "Point", "coordinates": [155.1175952, 68.4871159]}, "type": "Feature", "properties": {"rating": 8.5, "genres": ["Action", "Adventure", "Drama"], "marker-color": "0044FF", "marker-symbol": "cinema", "title": "Gladiator", "url": "www.imdb.com/title/tt0172495", "id": "0172495", "directors": ["Ridley Scott"], "location": "\u0420\u043e\u043c\u0430\u043d, Srednekolymsky Ulus, Russian Federation", "year": 2000, "num_of_locations": 8}}, {"geometry": {"type": "Point", "coordinates": [-8.0929457, 41.4304712]}, "type": "Feature", "properties": {"rating": 8.5, "genres": ["Action", "Adventure", "Drama"], "marker-color": "0044FF", "marker-symbol": "cinema", "title": "Gladiator", "url": "www.imdb.com/title/tt0172495", "id": "0172495", "directors": ["Ridley Scott"], "location": "\u00c1frica, Rego, Celorico de Basto, Portugal", "year": 2000, "num_of_locations": 8}}, {"geometry": {"type": "Point", "coordinates": [-121.876922, 47.7678105]}, "type": "Feature", "properties": {"rating": 5.1, "genres": ["Horror", "Mystery", "Thriller"], "marker-color": "0044FF", "marker-symbol": "cinema", "title": "Cherry Falls", "url": "www.imdb.com/title/tt0175526", "id": "0175526", "directors": ["Geoffrey Wright"], "location": "Cherry Falls, King County, Washington, United States of America", "year": 2000, "num_of_locations": 2}}, {"geometry": {"type": "Point", "coordinates": [-78.492772, 37.1232245]}, "type": "Feature", "properties": {"rating": 5.1, "genres": ["Horror", "Mystery", "Thriller"], "marker-color": "0044FF", "marker-symbol": "cinema", "title": "Cherry Falls", "url": "www.imdb.com/title/tt0175526", "id": "0175526", "directors": ["Geoffrey Wright"], "location": "Virginia, United States of America", "year": 2000, "num_of_locations": 2}}, {"geometry": {"type": "Point", "coordinates": [34.9249653, 38.9597594]}, "type": "Feature", "properties": {"rating": 7.8, "genres": ["Adventure", "Comedy", "Romance"], "marker-color": "0044FF", "marker-symbol": "cinema", "title": "Im Juli", "url": "www.imdb.com/title/tt0177858", "id": "0177858", "directors": ["Fatih Akin"], "location": "Turkey", "year": 2000, "num_of_locations": 9}}, {"geometry": {"type": "Point", "coordinates": [19.0404707, 47.4983815]}, "type": "Feature", "properties": {"rating": 7.8, "genres": ["Adventure", "Comedy", "Romance"], "marker-color": "0044FF", "marker-symbol": "cinema", "title": "Im Juli", "url": "www.imdb.com/title/tt0177858", "id": "0177858", "directors": ["Fatih Akin"], "location": "Budapest, Hungary", "year": 2000, "num_of_locations": 9}}, {"geometry": {"type": "Point", "coordinates": [11.4038717, 48.9467562]}, "type": "Feature", "properties": {"rating": 7.8, "genres": ["Adventure", "Comedy", "Romance"], "marker-color": "0044FF", "marker-symbol": "cinema", "title": "Im Juli", "url": "www.imdb.com/title/tt0177858", "id": "0177858", "directors": ["Fatih Akin"], "location": "Bavaria, Germany", "year": 2000, "num_of_locations": 9}}, {"geometry": {"type": "Point", "coordinates": [28.9651646, 41.0096334]}, "type": "Feature", "properties": {"rating": 7.8, "genres": ["Adventure", "Comedy", "Romance"], "marker-color": "0044FF", "marker-symbol": "cinema", "title": "Im Juli", "url": "www.imdb.com/title/tt0177858", "id": "0177858", "directors": ["Fatih Akin"], "location": "Istanbul, Fatih, Turkey", "year": 2000, "num_of_locations": 9}}, {"geometry": {"type": "Point", "coordinates": [24.6859225, 45.9852129]}, "type": "Feature", "properties": {"rating": 7.8, "genres": ["Adventure", "Comedy", "Romance"], "marker-color": "0044FF", "marker-symbol": "cinema", "title": "Im Juli", "url": "www.imdb.com/title/tt0177858", "id": "0177858", "directors": ["Fatih Akin"], "location": "Romania", "year": 2000, "num_of_locations": 9}}, {"geometry": {"type": "Point", "coordinates": [10.4234469, 51.0834196]}, "type": "Feature", "properties": {"rating": 7.8, "genres": ["Adventure", "Comedy", "Romance"], "marker-color": "0044FF", "marker-symbol": "cinema", "title": "Im Juli", "url": "www.imdb.com/title/tt0177858", "id": "0177858", "directors": ["Fatih Akin"], "location": "Germany", "year": 2000, "num_of_locations": 9}}, {"geometry": {"type": "Point", "coordinates": [10.000654, 53.550341]}, "type": "Feature", "properties": {"rating": 7.8, "genres": ["Adventure", "Comedy", "Romance"], "marker-color": "0044FF", "marker-symbol": "cinema", "title": "Im Juli", "url": "www.imdb.com/title/tt0177858", "id": "0177858", "directors": ["Fatih Akin"], "location": "Hamburg, Germany", "year": 2000, "num_of_locations": 9}}, {"geometry": {"type": "Point", "coordinates": [19.8915929, 45.2587805]}, "type": "Feature", "properties": {"rating": 7.8, "genres": ["Adventure", "Comedy", "Romance"], "marker-color": "0044FF", "marker-symbol": "cinema", "title": "Im Juli", "url": "www.imdb.com/title/tt0177858", "id": "0177858", "directors": ["Fatih Akin"], "location": "Danube, Novi Sad City, Serbia", "year": 2000, "num_of_locations": 9}}, {"geometry": {"type": "Point", "coordinates": [25.4856617, 42.6073975]}, "type": "Feature", "properties": {"rating": 7.8, "genres": ["Adventure", "Comedy", "Romance"], "marker-color": "0044FF", "marker-symbol": "cinema", "title": "Im Juli", "url": "www.imdb.com/title/tt0177858", "id": "0177858", "directors": ["Fatih Akin"], "location": "Bulgaria", "year": 2000, "num_of_locations": 9}}, {"geometry": {"type": "Point", "coordinates": [-72.0323659, 42.3788774]}, "type": "Feature", "properties": {"rating": 6.4, "genres": ["Action", "Adventure", "Drama", "Thriller"], "marker-color": "0044FF", "marker-symbol": "cinema", "title": "The Perfect Storm", "url": "www.imdb.com/title/tt0177971", "id": "0177971", "directors": ["Wolfgang Petersen"], "location": "Massachusetts, United States of America", "year": 2000, "num_of_locations": 2}}, {"geometry": {"type": "Point", "coordinates": [-2.2458191, 51.8653705]}, "type": "Feature", "properties": {"rating": 6.4, "genres": ["Action", "Adventure", "Drama", "Thriller"], "marker-color": "0044FF", "marker-symbol": "cinema", "title": "The Perfect Storm", "url": "www.imdb.com/title/tt0177971", "id": "0177971", "directors": ["Wolfgang Petersen"], "location": "Gloucester, Gloucestershire, England, United Kingdom", "year": 2000, "num_of_locations": 2}}, {"geometry": {"type": "Point", "coordinates": [-73.9865811, 40.7305991]}, "type": "Feature", "properties": {"rating": 6.1, "genres": ["Action", "Crime", "Drama", "Thriller"], "marker-color": "0044FF", "marker-symbol": "cinema", "title": "15 Minutes", "url": "www.imdb.com/title/tt0179626", "id": "0179626", "directors": ["John Herzfeld"], "location": "New York City, United States of America", "year": 2001, "num_of_locations": 3}}, {"geometry": {"type": "Point", "coordinates": [15.4749544, 49.8167003]}, "type": "Feature", "properties": {"rating": 6.1, "genres": ["Action", "Crime", "Drama", "Thriller"], "marker-color": "0044FF", "marker-symbol": "cinema", "title": "15 Minutes", "url": "www.imdb.com/title/tt0179626", "id": "0179626", "directors": ["John Herzfeld"], "location": "Czechia", "year": 2001, "num_of_locations": 3}}, {"geometry": {"type": "Point", "coordinates": [-100.4458824, 39.7837304]}, "type": "Feature", "properties": {"rating": 6.1, "genres": ["Action", "Crime", "Drama", "Thriller"], "marker-color": "0044FF", "marker-symbol": "cinema", "title": "15 Minutes", "url": "www.imdb.com/title/tt0179626", "id": "0179626", "directors": ["John Herzfeld"], "location": "United States of America", "year": 2001, "num_of_locations": 3}}, {"geometry": {"type": "Point", "coordinates": [-102.4107492, 34.2331373]}, "type": "Feature", "properties": {"rating": 3.8, "genres": ["Comedy", "Action", "Sci-Fi"], "marker-color": "0044FF", "marker-symbol": "cinema", "title": "The Adventures of Pluto Nash", "url": "www.imdb.com/title/tt0180052", "id": "0180052", "directors": ["Ron Underwood"], "location": "Earth, Lamb County, Texas, United States of America", "year": 2002, "num_of_locations": 4}}, {"geometry": {"type": "Point", "coordinates": [-76.6441167, 43.3975672]}, "type": "Feature", "properties": {"rating": 3.8, "genres": ["Comedy", "Action", "Sci-Fi"], "marker-color": "0044FF", "marker-symbol": "cinema", "title": "The Adventures of Pluto Nash", "url": "www.imdb.com/title/tt0180052", "id": "0180052", "directors": ["Ron Underwood"], "location": "Moon Beach, Cayuga County, New York, United States of America", "year": 2002, "num_of_locations": 4}}, {"geometry": {"type": "Point", "coordinates": [-90.0345611, 40.4058741]},