{"type": "FeatureCollection", "features": [{"geometry": {"type": "Point", "coordinates": [-77.0365534, 38.8976998]}, "type": "Feature", "properties": {"rating": 4.8, "genres": ["Action", "Comedy", "Sci-Fi", "Western"], "marker-color": "0044FF", "marker-symbol": "cinema", "title": "Wild Wild West", "url": "www.imdb.com/title/tt0120891", "id": "0120891", "directors": ["Barry Sonnenfeld"], "location": "White House, 1600 Pennsylvania Avenue Northwest, Washington, DC 20500, United States of America", "year": 1999, "num_of_locations": 12}}, {"geometry": {"type": "Point", "coordinates": [34.5731341, 0.5090396]}, "type": "Feature", "properties": {"rating": 4.8, "genres": ["Action", "Comedy", "Sci-Fi", "Western"], "marker-color": "0044FF", "marker-symbol": "cinema", "title": "Wild Wild West", "url": "www.imdb.com/title/tt0120891", "id": "0120891", "directors": ["Barry Sonnenfeld"], "location": "Western, Kenya", "year": 1999, "num_of_locations": 12}}, {"geometry": {"type": "Point", "coordinates": [-88.7321584, 45.1895845]}, "type": "Feature", "properties": {"rating": 4.8, "genres": ["Action", "Comedy", "Sci-Fi", "Western"], "marker-color": "0044FF", "marker-symbol": "cinema", "title": "Wild Wild West", "url": "www.imdb.com/title/tt0120891", "id": "0120891", "directors": ["Barry Sonnenfeld"], "location": "U.S., State Highway 55, Langlade, WI 54462, United States of America", "year": 1999, "num_of_locations": 12}}, {"geometry": {"type": "Point", "coordinates": [172.7216673, -43.6029274]}, "type": "Feature", "properties": {"rating": 4.8, "genres": ["Action", "Comedy", "Sci-Fi", "Western"], "marker-color": "0044FF", "marker-symbol": "cinema", "title": "Wild Wild West", "url": "www.imdb.com/title/tt0120891", "id": "0120891", "directors": ["Barry Sonnenfeld"], "location": "Fat Tony's Bar & Swill, 17 London Street, Lyttelton, Diamond Harbour 8082, New Zealand", "year": 1999, "num_of_locations": 12}}, {"geometry": {"type": "Point", "coordinates": [-85.2902471, 34.8711497]}, "type": "Feature", "properties": {"rating": 4.8, "genres": ["Action", "Comedy", "Sci-Fi", "Western"], "marker-color": "0044FF", "marker-symbol": "cinema", "title": "Wild Wild West", "url": "www.imdb.com/title/tt0120891", "id": "0120891", "directors": ["Barry Sonnenfeld"], "location": "Chickamauga, Walker County, Georgia, United States of America", "year": 1999, "num_of_locations": 12}}, {"geometry": {"type": "Point", "coordinates": [-100.4458824, 39.7837304]}, "type": "Feature", "properties": {"rating": 4.8, "genres": ["Action", "Comedy", "Sci-Fi", "Western"], "marker-color": "0044FF", "marker-symbol": "cinema", "title": "Wild Wild West", "url": "www.imdb.com/title/tt0120891", "id": "0120891", "directors": ["Barry Sonnenfeld"], "location": "United States of America", "year": 1999, "num_of_locations": 12}}, {"geometry": {"type": "Point", "coordinates": [-90.0701155, 29.9499323]}, "type": "Feature", "properties": {"rating": 4.8, "genres": ["Action", "Comedy", "Sci-Fi", "Western"], "marker-color": "0044FF", "marker-symbol": "cinema", "title": "Wild Wild West", "url": "www.imdb.com/title/tt0120891", "id": "0120891", "directors": ["Barry Sonnenfeld"], "location": "New Orleans, Orleans Parish, Louisiana, United States of America", "year": 1999, "num_of_locations": 12}}, {"geometry": {"type": "Point", "coordinates": [-90.07507, 29.95465]}, "type": "Feature", "properties": {"rating": 4.8, "genres": ["Action", "Comedy", "Sci-Fi", "Western"], "marker-color": "0044FF", "marker-symbol": "cinema", "title": "Wild Wild West", "url": "www.imdb.com/title/tt0120891", "id": "0120891", "directors": ["Barry Sonnenfeld"], "location": "New Orleans, Orleans Parish, Louisiana, United States of America", "year": 1999, "num_of_locations": 12}}, {"geometry": {"type": "Point", "coordinates": [-90.1903349, 39.7062265]}, "type": "Feature", "properties": {"rating": 4.8, "genres": ["Action", "Comedy", "Sci-Fi", "Western"], "marker-color": "0044FF", "marker-symbol": "cinema", "title": "Wild Wild West", "url": "www.imdb.com/title/tt0120891", "id": "0120891", "directors": ["Barry Sonnenfeld"], "location": "Morgan County, Illinois, United States of America", "year": 1999, "num_of_locations": 12}}, {"geometry": {"type": "Point", "coordinates": [-80.8408414, 38.4758406]}, "type": "Feature", "properties": {"rating": 4.8, "genres": ["Action", "Comedy", "Sci-Fi", "Western"], "marker-color": "0044FF", "marker-symbol": "cinema", "title": "Wild Wild West", "url": "www.imdb.com/title/tt0120891", "id": "0120891", "directors": ["Barry Sonnenfeld"], "location": "West Virginia, United States of America", "year": 1999, "num_of_locations": 12}}, {"geometry": {"type": "Point", "coordinates": [-77.0374074, 38.8973793]}, "type": "Feature", "properties": {"rating": 4.8, "genres": ["Action", "Comedy", "Sci-Fi", "Western"], "marker-color": "0044FF", "marker-symbol": "cinema", "title": "Wild Wild West", "url": "www.imdb.com/title/tt0120891", "id": "0120891", "directors": ["Barry Sonnenfeld"], "location": "The Oval Office, 1600 Pennsylvania Avenue Northwest, Washington, DC 20006, United States of America", "year": 1999, "num_of_locations": 12}}, {"geometry": {"type": "Point", "coordinates": [-92.0071259, 30.8703881]}, "type": "Feature", "properties": {"rating": 4.8, "genres": ["Action", "Comedy", "Sci-Fi", "Western"], "marker-color": "0044FF", "marker-symbol": "cinema", "title": "Wild Wild West", "url": "www.imdb.com/title/tt0120891", "id": "0120891", "directors": ["Barry Sonnenfeld"], "location": "Louisiana, United States of America", "year": 1999, "num_of_locations": 12}}, {"geometry": {"type": "Point", "coordinates": [-0.1276473, 51.5073219]}, "type": "Feature", "properties": {"rating": 6.5, "genres": ["Biography", "Comedy", "Drama"], "marker-color": "0044FF", "marker-symbol": "cinema", "title": "My Life So Far", "url": "www.imdb.com/title/tt0120899", "id": "0120899", "directors": ["Hugh Hudson"], "location": "London, United Kingdom", "year": 1999, "num_of_locations": 3}}, {"geometry": {"type": "Point", "coordinates": [-4.1140517, 56.7861112]}, "type": "Feature", "properties": {"rating": 6.5, "genres": ["Biography", "Comedy", "Drama"], "marker-color": "0044FF", "marker-symbol": "cinema", "title": "My Life So Far", "url": "www.imdb.com/title/tt0120899", "id": "0120899", "directors": ["Hugh Hudson"], "location": "Scotland, United Kingdom", "year": 1999, "num_of_locations": 3}}, {"geometry": {"type": "Point", "coordinates": [-89.7710539, 38.720542]}, "type": "Feature", "properties": {"rating": 6.5, "genres": ["Biography", "Comedy", "Drama"], "marker-color": "0044FF", "marker-symbol": "cinema", "title": "My Life So Far", "url": "www.imdb.com/title/tt0120899", "id": "0120899", "directors": ["Hugh Hudson"], "location": "Irene Drive, St. Jacob, IL 62281, United States of America", "year": 1999, "num_of_locations": 3}}, {"geometry": {"type": "Point", "coordinates": [-102.3967044, 31.8683534]}, "type": "Feature", "properties": {"rating": 7.0, "genres": ["Drama", "Mystery", "Sci-Fi", "Thriller"], "marker-color": "0044FF", "marker-symbol": "cinema", "title": "The X Files", "url": "www.imdb.com/title/tt0120902", "id": "0120902", "directors": ["Rob Bowman"], "location": "Odessa, TX 79769, United States of America", "year": 1998, "num_of_locations": 8}}, {"geometry": {"type": "Point", "coordinates": [-96.7968558, 32.7762719]}, "type": "Feature", "properties": {"rating": 7.0, "genres": ["Drama", "Mystery", "Sci-Fi", "Thriller"], "marker-color": "0044FF", "marker-symbol": "cinema", "title": "The X Files", "url": "www.imdb.com/title/tt0120902", "id": "0120902", "directors": ["Rob Bowman"], "location": "Dallas, Dallas County, Texas, United States of America", "year": 1998, "num_of_locations": 8}}, {"geometry": {"type": "Point", "coordinates": [-111.7143583, 39.4225192]}, "type": "Feature", "properties": {"rating": 7.0, "genres": ["Drama", "Mystery", "Sci-Fi", "Thriller"], "marker-color": "0044FF", "marker-symbol": "cinema", "title": "The X Files", "url": "www.imdb.com/title/tt0120902", "id": "0120902", "directors": ["Rob Bowman"], "location": "Utah, United States of America", "year": 1998, "num_of_locations": 8}}, {"geometry": {"type": "Point", "coordinates": [-77.0366455, 38.8949549]}, "type": "Feature", "properties": {"rating": 7.0, "genres": ["Drama", "Mystery", "Sci-Fi", "Thriller"], "marker-color": "0044FF", "marker-symbol": "cinema", "title": "The X Files", "url": "www.imdb.com/title/tt0120902", "id": "0120902", "directors": ["Rob Bowman"], "location": "Washington, District of Columbia, United States of America", "year": 1998, "num_of_locations": 8}}, {"geometry": {"type": "Point", "coordinates": [34.37824, -82.1081821]}, "type": "Feature", "properties": {"rating": 7.0, "genres": ["Drama", "Mystery", "Sci-Fi", "Thriller"], "marker-color": "0044FF", "marker-symbol": "cinema", "title": "The X Files", "url": "www.imdb.com/title/tt0120902", "id": "0120902", "directors": ["Rob Bowman"], "location": "Antarctica", "year": 1998, "num_of_locations": 8}}, {"geometry": {"type": "Point", "coordinates": [-111.8904307, 40.7670126]}, "type": "Feature", "properties": {"rating": 7.0, "genres": ["Drama", "Mystery", "Sci-Fi", "Thriller"], "marker-color": "0044FF", "marker-symbol": "cinema", "title": "The X Files", "url": "www.imdb.com/title/tt0120902", "id": "0120902", "directors": ["Rob Bowman"], "location": "Salt Lake City, Salt Lake County, Utah, United States of America", "year": 1998, "num_of_locations": 8}}, {"geometry": {"type": "Point", "coordinates": [-97.5170535, 35.4729886]}, "type": "Feature", "properties": {"rating": 7.0, "genres": ["Drama", "Mystery", "Sci-Fi", "Thriller"], "marker-color": "0044FF", "marker-symbol": "cinema", "title": "The X Files", "url": "www.imdb.com/title/tt0120902", "id": "0120902", "directors": ["Rob Bowman"], "location": "Oklahoma City, Oklahoma County, Oklahoma, United States of America", "year": 1998, "num_of_locations": 8}}, {"geometry": {"type": "Point", "coordinates": [-99.5120985, 31.8160381]}, "type": "Feature", "properties": {"rating": 7.0, "genres": ["Drama", "Mystery", "Sci-Fi", "Thriller"], "marker-color": "0044FF", "marker-symbol": "cinema", "title": "The X Files", "url": "www.imdb.com/title/tt0120902", "id": "0120902", "directors": ["Rob Bowman"], "location": "Texas, United States of America", "year": 1998, "num_of_locations": 8}}, {"geometry": {"type": "Point", "coordinates": [-96.3602605, 50.2086824]}, "type": "Feature", "properties": {"rating": 6.8, "genres": ["Action", "Horror", "Sci-Fi", "Thriller"], "marker-color": "0044FF", "marker-symbol": "cinema", "title": "eXistenZ", "url": "www.imdb.com/title/tt0120907", "id": "0120907", "directors": ["David Cronenberg"], "location": "Allegra, Manitoba, Canada", "year": 1999, "num_of_locations": 1}}, {"geometry": {"type": "Point", "coordinates": [139.2947745, 34.2255804]}, "type": "Feature", "properties": {"rating": 7.2, "genres": ["Animation", "Comedy", "Family", "Fantasy", "Music"], "marker-color": "0044FF", "marker-symbol": "cinema", "title": "Fantasia 2000", "url": "www.imdb.com/title/tt0120910", "id": "0120910", "directors": ["James Algar", "Ga\u00ebtan Brizzi", "Paul Brizzi", "Hendel Butoy", "Francis Glebas", "Eric Goldberg", "Don Hahn", "Pixote Hunt"], "location": "Tokyo, Japan", "year": 1999, "num_of_locations": 7}}, {"geometry": {"type": "Point", "coordinates": [2.3514992, 48.8566101]}, "type": "Feature", "properties": {"rating": 7.2, "genres": ["Animation", "Comedy", "Family", "Fantasy", "Music"], "marker-color": "0044FF", "marker-symbol": "cinema", "title": "Fantasia 2000", "url": "www.imdb.com/title/tt0120910", "id": "0120910", "directors": ["James Algar", "Ga\u00ebtan Brizzi", "Paul Brizzi", "Hendel Butoy", "Francis Glebas", "Eric Goldberg", "Don Hahn", "Pixote Hunt"], "location": "Paris, France", "year": 1999, "num_of_locations": 7}}, {"geometry": {"type": "Point", "coordinates": [-73.9865811, 40.7305991]}, "type": "Feature", "properties": {"rating": 7.2, "genres": ["Animation", "Comedy", "Family", "Fantasy", "Music"], "marker-color": "0044FF", "marker-symbol": "cinema", "title": "Fantasia 2000", "url": "www.imdb.com/title/tt0120910", "id": "0120910", "directors": ["James Algar", "Ga\u00ebtan Brizzi", "Paul Brizzi", "Hendel Butoy", "Francis Glebas", "Eric Goldberg", "Don Hahn", "Pixote Hunt"], "location": "New York City, United States of America", "year": 1999, "num_of_locations": 7}}, {"geometry": {"type": "Point", "coordinates": [-118.1444778, 34.1476452]}, "type": "Feature", "properties": {"rating": 7.2, "genres": ["Animation", "Comedy", "Family", "Fantasy", "Music"], "marker-color": "0044FF", "marker-symbol": "cinema", "title": "Fantasia 2000", "url": "www.imdb.com/title/tt0120910", "id": "0120910", "directors": ["James Algar", "Ga\u00ebtan Brizzi", "Paul Brizzi", "Hendel Butoy", "Francis Glebas", "Eric Goldberg", "Don Hahn", "Pixote Hunt"], "location": "Pasadena, Los Angeles County, California, United States of America", "year": 1999, "num_of_locations": 7}}, {"geometry": {"type": "Point", "coordinates": [-0.1276473, 51.5073219]}, "type": "Feature", "properties": {"rating": 7.2, "genres": ["Animation", "Comedy", "Family", "Fantasy", "Music"], "marker-color": "0044FF", "marker-symbol": "cinema", "title": "Fantasia 2000", "url": "www.imdb.com/title/tt0120910", "id": "0120910", "directors": ["James Algar", "Ga\u00ebtan Brizzi", "Paul Brizzi", "Hendel Butoy", "Francis Glebas", "Eric Goldberg", "Don Hahn", "Pixote Hunt"], "location": "London, United Kingdom", "year": 1999, "num_of_locations": 7}}, {"geometry": {"type": "Point", "coordinates": [-73.9798867, 40.76503]}, "type": "Feature", "properties": {"rating": 7.2, "genres": ["Animation", "Comedy", "Family", "Fantasy", "Music"], "marker-color": "0044FF", "marker-symbol": "cinema", "title": "Fantasia 2000", "url": "www.imdb.com/title/tt0120910", "id": "0120910", "directors": ["James Algar", "Ga\u00ebtan Brizzi", "Paul Brizzi", "Hendel Butoy", "Francis Glebas", "Eric Goldberg", "Don Hahn", "Pixote Hunt"], "location": "Carnegie Hall, West 57th Street, New York City, NY 10019, United States of America", "year": 1999, "num_of_locations": 7}}, {"geometry": {"type": "Point", "coordinates": [-118.7559973, 36.7014631]}, "type": "Feature", "properties": {"rating": 7.2, "genres": ["Animation", "Comedy", "Family", "Fantasy", "Music"], "marker-color": "0044FF", "marker-symbol": "cinema", "title": "Fantasia 2000", "url": "www.imdb.com/title/tt0120910", "id": "0120910", "directors": ["James Algar", "Ga\u00ebtan Brizzi", "Paul Brizzi", "Hendel Butoy", "Francis Glebas", "Eric Goldberg", "Don Hahn", "Pixote Hunt"], "location": "California, United States of America", "year": 1999, "num_of_locations": 7}}, {"geometry": {"type": "Point", "coordinates": [11.8793009, 43.4725897]}, "type": "Feature", "properties": {"rating": 6.5, "genres": ["Action", "Adventure", "Fantasy", "Sci-Fi"], "marker-color": "0044FF", "marker-symbol": "cinema", "title": "Star Wars: Episode I - The Phantom Menace", "url": "www.imdb.com/title/tt0120915", "id": "0120915", "directors": ["George Lucas"], "location": "Naboo piz. rist., Viale Santa Margherita, 52100 Arezzo AR, Italy", "year": 1999, "num_of_locations": 3}}, {"geometry": {"type": "Point", "coordinates": [-93.48019, 37.12005]}, "type": "Feature", "properties": {"rating": 6.5, "genres": ["Action", "Adventure", "Fantasy", "Sci-Fi"], "marker-color": "0044FF", "marker-symbol": "cinema", "title": "Star Wars: Episode I - The Phantom Menace", "url": "www.imdb.com/title/tt0120915", "id": "0120915", "directors": ["George Lucas"], "location": "Republic, Greene County, Missouri, United States of America", "year": 1999, "num_of_locations": 3}}, {"geometry": {"type": "Point", "coordinates": [-58.443518, -34.5507459]}, "type": "Feature", "properties": {"rating": 6.5, "genres": ["Action", "Adventure", "Fantasy", "Sci-Fi"], "marker-color": "0044FF", "marker-symbol": "cinema", "title": "Star Wars: Episode I - The Phantom Menace", "url": "www.imdb.com/title/tt0120915", "id": "0120915", "directors": ["George Lucas"], "location": "Trade Representation of the Russian Federation, Dragones 2350, Belgrano, 1428 Buenos Aires, Argentina", "year": 1999, "num_of_locations": 3}}, {"geometry": {"type": "Point", "coordinates": [115.8885987, 28.6792695]}, "type": "Feature", "properties": {"rating": 6.6, "genres": ["Action", "Crime", "Thriller"], "marker-color": "0044FF", "marker-symbol": "cinema", "title": "Lethal Weapon 4", "url": "www.imdb.com/title/tt0122151", "id": "0122151", "directors": ["Richard Donner"], "location": "Nanchang, China", "year": 1998, "num_of_locations": 3}}, {"geometry": {"type": "Point", "coordinates": [-73.9962503, 40.7164913]}, "type": "Feature", "properties": {"rating": 6.6, "genres": ["Action", "Crime", "Thriller"], "marker-color": "0044FF", "marker-symbol": "cinema", "title": "Lethal Weapon 4", "url": "www.imdb.com/title/tt0122151", "id": "0122151", "directors": ["Richard Donner"], "location": "New York City, NY 10013, United States of America", "year": 1998, "num_of_locations": 3}}, {"geometry": {"type": "Point", "coordinates": [-80.4528501, 39.8603564]}, "type": "Feature", "properties": {"rating": 6.6, "genres": ["Action", "Crime", "Thriller"], "marker-color": "0044FF", "marker-symbol": "cinema", "title": "Lethal Weapon 4", "url": "www.imdb.com/title/tt0122151", "id": "0122151", "directors": ["Richard Donner"], "location": "Riggs, Greene County, Pennsylvania, United States of America", "year": 1998, "num_of_locations": 3}}, {"geometry": {"type": "Point", "coordinates": [2.3514992, 48.8566101]}, "type": "Feature", "properties": {"rating": 7.3, "genres": ["Action", "Adventure", "Crime", "Thriller"], "marker-color": "0044FF", "marker-symbol": "cinema", "title": "Ronin", "url": "www.imdb.com/title/tt0122690", "id": "0122690", "directors": ["John Frankenheimer"], "location": "Paris, France", "year": 1998, "num_of_locations": 6}}, {"geometry": {"type": "Point", "coordinates": [2.444754, 48.7308806]}, "type": "Feature", "properties": {"rating": 7.3, "genres": ["Action", "Adventure", "Crime", "Thriller"], "marker-color": "0044FF", "marker-symbol": "cinema", "title": "Ronin", "url": "www.imdb.com/title/tt0122690", "id": "0122690", "directors": ["John Frankenheimer"], "location": "La Seine, Cr\u00e9teil, France", "year": 1998, "num_of_locations": 6}}, {"geometry": {"type": "Point", "coordinates": [1.8883335, 46.603354]}, "type": "Feature", "properties": {"rating": 7.3, "genres": ["Action", "Adventure", "Crime", "Thriller"], "marker-color": "0044FF", "marker-symbol": "cinema", "title": "Ronin", "url": "www.imdb.com/title/tt0122690", "id": "0122690", "directors": ["John Frankenheimer"], "location": "France", "year": 1998, "num_of_locations": 6}}, {"geometry": {"type": "Point", "coordinates": [-0.7198938, 46.8021347]}, "type": "Feature", "properties": {"rating": 7.3, "genres": ["Action", "Adventure", "Crime", "Thriller"], "marker-color": "0044FF", "marker-symbol": "cinema", "title": "Ronin", "url": "www.imdb.com/title/tt0122690", "id": "0122690", "directors": ["John Frankenheimer"], "location": "Montmartre, Fontenay-le-Comte, France", "year": 1998, "num_of_locations": 6}}, {"geometry": {"type": "Point", "coordinates": [4.6309653, 43.6776223]}, "type": "Feature", "properties": {"rating": 7.3, "genres": ["Action", "Adventure", "Crime", "Thriller"], "marker-color": "0044FF", "marker-symbol": "cinema", "title": "Ronin", "url": "www.imdb.com/title/tt0122690", "id": "0122690", "directors": ["John Frankenheimer"], "location": "13200 Arles, France", "year": 1998, "num_of_locations": 6}}, {"geometry": {"type": "Point", "coordinates": [7.2683912, 43.7009358]}, "type": "Feature", "properties": {"rating": 7.3, "genres": ["Action", "Adventure", "Crime", "Thriller"], "marker-color": "0044FF", "marker-symbol": "cinema", "title": "Ronin", "url": "www.imdb.com/title/tt0122690", "id": "0122690", "directors": ["John Frankenheimer"], "location": "Nice, Maritime Alps, France", "year": 1998, "num_of_locations": 6}}, {"geometry": {"type": "Point", "coordinates": [-102.4107492, 34.2331373]}, "type": "Feature", "properties": {"rating": 6.1, "genres": ["Action", "Adventure", "Comedy", "Family", "Sci-Fi"], "marker-color": "0044FF", "marker-symbol": "cinema", "title": "Small Soldiers", "url": "www.imdb.com/title/tt0122718", "id": "0122718", "directors": ["Joe Dante"], "location": "Earth, Lamb County, Texas, United States of America", "year": 1998, "num_of_locations": 4}}, {"geometry": {"type": "Point", "coordinates": [-82.6881394, 40.2253569]}, "type": "Feature", "properties": {"rating": 6.1, "genres": ["Action", "Adventure", "Comedy", "Family", "Sci-Fi"], "marker-color": "0044FF", "marker-symbol": "cinema", "title": "Small Soldiers", "url": "www.imdb.com/title/tt0122718", "id": "0122718", "directors": ["Joe Dante"], "location": "Ohio, United States of America", "year": 1998, "num_of_locations": 4}}, {"geometry": {"type": "Point", "coordinates": [-81.6934445, 41.5051613]}, "type": "Feature", "properties": {"rating": 6.1, "genres": ["Action", "Adventure", "Comedy", "Family", "Sci-Fi"], "marker-color": "0044FF", "marker-symbol": "cinema", "title": "Small Soldiers", "url": "www.imdb.com/title/tt0122718", "id": "0122718", "directors": ["Joe Dante"], "location": "Cleveland, Cuyahoga County, Ohio, United States of America", "year": 1998, "num_of_locations": 4}}, {"geometry": {"type": "Point", "coordinates": [3.5560447, 44.0009649]}, "type": "Feature", "properties": {"rating": 6.1, "genres": ["Action", "Adventure", "Comedy", "Family", "Sci-Fi"], "marker-color": "0044FF", "marker-symbol": "cinema", "title": "Small Soldiers", "url": "www.imdb.com/title/tt0122718", "id": "0122718", "directors": ["Joe Dante"], "location": "30120 Mars, France", "year": 1998, "num_of_locations": 4}}, {"geometry": {"type": "Point", "coordinates": [-122.4192362, 37.7792808]}, "type": "Feature", "properties": {"rating": 6.5, "genres": ["Comedy", "Drama", "Romance"], "marker-color": "0044FF", "marker-symbol": "cinema", "title": "The Other Sister", "url": "www.imdb.com/title/tt0123209", "id": "0123209", "directors": ["Garry Marshall"], "location": "San Francisco, San Francisco City and County, California, United States of America", "year": 1999, "num_of_locations": 1}}, {"geometry": {"type": "Point", "coordinates": [-66.875061, 18.1051347]}, "type": "Feature", "properties": {"rating": 6.3, "genres": ["Comedy", "Crime", "Thriller"], "marker-color": "0044FF", "marker-symbol": "cinema", "title": "Very Bad Things", "url": "www.imdb.com/title/tt0124198", "id": "0124198", "directors": ["Peter Berg"], "location": "Vegas, Yauco, Puerto Rico, United States of America", "year": 1998, "num_of_locations": 2}}, {"geometry": {"type": "Point", "coordinates": [-115.1492249, 36.1662859]}, "type": "Feature", "properties": {"rating": 6.3, "genres": ["Comedy", "Crime", "Thriller"], "marker-color": "0044FF", "marker-symbol": "cinema", "title": "Very Bad Things", "url": "www.imdb.com/title/tt0124198", "id": "0124198", "directors": ["Peter Berg"], "location": "Las Vegas, Clark County, Nevada, United States of America", "year": 1998, "num_of_locations": 2}}, {"geometry": {"type": "Point", "coordinates": [-118.1444778, 34.1476452]}, "type": "Feature", "properties": {"rating": 6.6, "genres": ["Comedy", "Drama", "Romance", "Sci-Fi"], "marker-color": "0044FF", "marker-symbol": "cinema", "title": "Blast from the Past", "url": "www.imdb.com/title/tt0124298", "id": "0124298", "directors": ["Hugh Wilson"], "location": "Pasadena, Los Angeles County, California, United States of America", "year": 1999, "num_of_locations": 3}}, {"geometry": {"type": "Point", "coordinates": [-118.2444759, 34.054935]}, "type": "Feature", "properties": {"rating": 6.6, "genres": ["Comedy", "Drama", "Romance", "Sci-Fi"], "marker-color": "0044FF", "marker-symbol": "cinema", "title": "Blast from the Past", "url": "www.imdb.com/title/tt0124298", "id": "0124298", "directors": ["Hugh Wilson"], "location": "Los Angeles, Los Angeles County, California, United States of America", "year": 1999, "num_of_locations": 3}}, {"geometry": {"type": "Point", "coordinates": [13.0011564, 52.8454307]}, "type": "Feature", "properties": {"rating": 6.6, "genres": ["Comedy", "Drama", "Romance", "Sci-Fi"], "marker-color": "0044FF", "marker-symbol": "cinema", "title": "Blast from the Past", "url": "www.imdb.com/title/tt0124298", "id": "0124298", "directors": ["Hugh Wilson"], "location": "L.A., 16766 Kremmen, Germany", "year": 1999, "num_of_locations": 3}}, {"geometry": {"type": "Point", "coordinates": [-95.5956433, 43.6205056]}, "type": "Feature", "properties": {"rating": 7.4, "genres": ["Drama", "Romance"], "marker-color": "0044FF", "marker-symbol": "cinema", "title": "The Cider House Rules", "url": "www.imdb.com/title/tt0124315", "id": "0124315", "directors": ["Lasse Hallstr\u00f6m"], "location": "Worthington, Nobles County, Minnesota, United States of America", "year": 1999, "num_of_locations": 1}}, {"geometry": {"type": "Point", "coordinates": [13.0011564, 52.8454307]}, "type": "Feature", "properties": {"rating": 7.2, "genres": ["Action", "Comedy", "Crime", "Drama", "Mystery", "Thriller"], "marker-color": "0044FF", "marker-symbol": "cinema", "title": "Thursday", "url": "www.imdb.com/title/tt0124901", "id": "0124901", "directors": ["Skip Woods"], "location": "L.A., 16766 Kremmen, Germany", "year": 1998, "num_of_locations": 3}}, {"geometry": {"type": "Point", "coordinates": [-118.2444759, 34.054935]}, "type": "Feature", "properties": {"rating": 7.2, "genres": ["Action", "Comedy", "Crime", "Drama", "Mystery", "Thriller"], "marker-color": "0044FF", "marker-symbol": "cinema", "title": "Thursday", "url": "www.imdb.com/title/tt0124901", "id": "0124901", "directors": ["Skip Woods"], "location": "Los Angeles, Los Angeles County, California, United States of America", "year": 1998, "num_of_locations": 3}}, {"geometry": {"type": "Point", "coordinates": [-96.7968558, 32.7762719]}, "type": "Feature", "properties": {"rating": 7.2, "genres": ["Action", "Comedy", "Crime", "Drama", "Mystery", "Thriller"], "marker-color": "0044FF", "marker-symbol": "cinema", "title": "Thursday", "url": "www.imdb.com/title/tt0124901", "id": "0124901", "directors": ["Skip Woods"], "location": "Dallas, Dallas County, Texas, United States of America", "year": 1998, "num_of_locations": 3}}, {"geometry": {"type": "Point", "coordinates": [-118.2444759, 34.054935]}, "type": "Feature", "properties": {"rating": 7.4, "genres": ["Biography", "Comedy", "Drama"], "marker-color": "0044FF", "marker-symbol": "cinema", "title": "Man on the Moon", "url": "www.imdb.com/title/tt0125664", "id": "0125664", "directors": ["Milos Forman"], "location": "Los Angeles, Los Angeles County, California, United States of America", "year": 1999, "num_of_locations": 8}}, {"geometry": {"type": "Point", "coordinates": [-73.9865811, 40.7305991]}, "type": "Feature", "properties": {"rating": 7.4, "genres": ["Biography", "Comedy", "Drama"], "marker-color": "0044FF", "marker-symbol": "cinema", "title": "Man on the Moon", "url": "www.imdb.com/title/tt0125664", "id": "0125664", "directors": ["Milos Forman"], "location": "New York City, United States of America", "year": 1999, "num_of_locations": 8}}, {"geometry": {"type": "Point", "coordinates": [122.7312101, 12.7503486]}, "type": "Feature", "properties": {"rating": 7.4, "genres": ["Biography", "Comedy", "Drama"], "marker-color": "0044FF", "marker-symbol": "cinema", "title": "Man on the Moon", "url": "www.imdb.com/title/tt0125664", "id": "0125664", "directors": ["Milos Forman"], "location": "Philippines", "year": 1999, "num_of_locations": 8}}, {"geometry": {"type": "Point", "coordinates": [-73.0992276, 40.8517821]}, "type": "Feature", "properties": {"rating": 7.4, "genres": ["Biography", "Comedy", "Drama"], "marker-color": "0044FF", "marker-symbol": "cinema", "title": "Man on the Moon", "url": "www.imdb.com/title/tt0125664", "id": "0125664", "directors": ["Milos Forman"], "location": "Lake Ronkonkoma, Suffolk County, New York, United States of America", "year": 1999, "num_of_locations": 8}}, {"geometry": {"type": "Point", "coordinates": [-73.9865811, 40.7305991]}, "type": "Feature", "properties": {"rating": 7.4, "genres": ["Biography", "Comedy", "Drama"], "marker-color": "0044FF", "marker-symbol": "cinema", "title": "Man on the Moon", "url": "www.imdb.com/title/tt0125664", "id": "0125664", "directors": ["Milos Forman"], "location": "New York City, United States of America", "year": 1999, "num_of_locations": 8}}, {"geometry": {"type": "Point", "coordinates": [-73.9798867, 40.76503]}, "type": "Feature", "properties": {"rating": 7.4, "genres": ["Biography", "Comedy", "Drama"], "marker-color": "0044FF", "marker-symbol": "cinema", "title": "Man on the Moon", "url": "www.imdb.com/title/tt0125664", "id": "0125664", "directors": ["Milos Forman"], "location": "Carnegie Hall, West 57th Street, New York City, NY 10019, United States of America", "year": 1999, "num_of_locations": 8}}, {"geometry": {"type": "Point", "coordinates": [-76.848306, 39.0992752]}, "type": "Feature", "properties": {"rating": 7.4, "genres": ["Biography", "Comedy", "Drama"], "marker-color": "0044FF", "marker-symbol": "cinema", "title": "Man on the Moon", "url": "www.imdb.com/title/tt0125664", "id": "0125664", "directors": ["Milos Forman"], "location": "Laurel, Prince George's County, Maryland, United States of America", "year": 1999, "num_of_locations": 8}}, {"geometry": {"type": "Point", "coordinates": [-75.6888389, 4.8180312]}, "type": "Feature", "properties": {"rating": 7.4, "genres": ["Biography", "Comedy", "Drama"], "marker-color": "0044FF", "marker-symbol": "cinema", "title": "Man on the Moon", "url": "www.imdb.com/title/tt0125664", "id": "0125664", "directors": ["Milos Forman"], "location": "America, Pereira, Colombia", "year": 1999, "num_of_locations": 8}}, {"geometry": {"type": "Point", "coordinates": [-99.5873815, 41.7370229]}, "type": "Feature", "properties": {"rating": 7.3, "genres": ["Comedy", "Drama", "Romance"], "marker-color": "0044FF", "marker-symbol": "cinema", "title": "Election", "url": "www.imdb.com/title/tt0126886", "id": "0126886", "directors": ["Alexander Payne"], "location": "Nebraska, United States of America", "year": 1999, "num_of_locations": 2}}, {"geometry": {"type": "Point", "coordinates": [-95.9378731, 41.2587317]}, "type": "Feature", "properties": {"rating": 7.3, "genres": ["Comedy", "Drama", "Romance"], "marker-color": "0044FF", "marker-symbol": "cinema", "title": "Election", "url": "www.imdb.com/title/tt0126886", "id": "0126886", "directors": ["Alexander Payne"], "location": "Omaha, Douglas County, Nebraska, United States of America", "year": 1999, "num_of_locations": 2}}, {"geometry": {"type": "Point", "coordinates": [5.5346074, 52.2379891]}, "type": "Feature", "properties": {"rating": 6.8, "genres": ["Action", "Adventure", "Comedy", "Sci-Fi", "Thriller"], "marker-color": "0044FF", "marker-symbol": "cinema", "title": "Ngo si seoi", "url": "www.imdb.com/title/tt0127357", "id": "0127357", "directors": ["Benny Chan", "Jackie Chan"], "location": "Netherlands, The Netherlands", "year": 1998, "num_of_locations": 6}}, {"geometry": {"type": "Point", "coordinates": [24.991639, -28.8166235]}, "type": "Feature", "properties": {"rating": 6.8, "genres": ["Action", "Adventure", "Comedy", "Sci-Fi", "Thriller"], "marker-color": "0044FF", "marker-symbol": "cinema", "title": "Ngo si seoi", "url": "www.imdb.com/title/tt0127357", "id": "0127357", "directors": ["Benny Chan", "Jackie Chan"], "location": "RSA", "year": 1998, "num_of_locations": 6}}, {"geometry": {"type": "Point", "coordinates": [15.9999997, 2.0000003]}, "type": "Feature", "properties": {"rating": 6.8, "genres": ["Action", "Adventure", "Comedy", "Sci-Fi", "Thriller"], "marker-color": "0044FF", "marker-symbol": "cinema", "title": "Ngo si seoi", "url": "www.imdb.com/title/tt0127357", "id": "0127357", "directors": ["Benny Chan", "Jackie Chan"], "location": "Africa", "year": 1998, "num_of_locations": 6}}, {"geometry": {"type": "Point", "coordinates": [28.049722, -26.2049999]}, "type": "Feature", "properties": {"rating": 6.8, "genres": ["Action", "Adventure", "Comedy", "Sci-Fi", "Thriller"], "marker-color": "0044FF", "marker-symbol": "cinema", "title": "Ngo si seoi", "url": "www.imdb.com/title/tt0127357", "id": "0127357", "directors": ["Benny Chan", "Jackie Chan"], "location": "Johannesburg, 2001, RSA", "year": 1998, "num_of_locations": 6}}, {"geometry": {"type": "Point", "coordinates": [4.4886233, 51.927798]}, "type": "Feature", "properties": {"rating": 6.8, "genres": ["Action", "Adventure", "Comedy", "Sci-Fi", "Thriller"], "marker-color": "0044FF", "marker-symbol": "cinema", "title": "Ngo si seoi", "url": "www.imdb.com/title/tt0127357", "id": "0127357", "directors": ["Benny Chan", "Jackie Chan"], "location": "Rotterdam, MRDH, The Netherlands", "year": 1998, "num_of_locations": 6}}, {"geometry": {"type": "Point", "coordinates": [114.1628131, 22.2793278]}, "type": "Feature", "properties": {"rating": 6.8, "genres": ["Action", "Adventure", "Comedy", "Sci-Fi", "Thriller"], "marker-color": "0044FF", "marker-symbol": "cinema", "title": "Ngo si seoi", "url": "www.imdb.com/title/tt0127357", "id": "0127357", "directors": ["Benny Chan", "Jackie Chan"], "location": "Hong Kong, Central and Western District, China", "year": 1998, "num_of_locations": 6}}, {"geometry": {"type": "Point", "coordinates": [-0.1276473, 51.5073219]}, "type": "Feature", "properties": {"rating": 7.5, "genres": ["Biography", "Drama", "History"], "marker-color": "0044FF", "marker-symbol": "cinema", "title": "Elizabeth", "url": "www.imdb.com/title/tt0127536", "id": "0127536", "directors": ["Shekhar Kapur"], "location": "London, United Kingdom", "year": 1998, "num_of_locations": 2}}, {"geometry": {"type": "Point", "coordinates": [-0.5402402, 52.7954791]}, "type": "Feature", "properties": {"rating": 7.5, "genres": ["Biography", "Drama", "History"], "marker-color": "0044FF", "marker-symbol": "cinema", "title": "Elizabeth", "url": "www.imdb.com/title/tt0127536", "id": "0127536", "directors": ["Shekhar Kapur"], "location": "England, United Kingdom", "year": 1998, "num_of_locations": 2}}, {"geometry": {"type": "Point", "coordinates": [-73.9865811, 40.7305991]}, "type": "Feature", "properties": {"rating": 7.4, "genres": ["Crime", "Drama"], "marker-color": "0044FF", "marker-symbol": "cinema", "title": "Rounders", "url": "www.imdb.com/title/tt0128442", "id": "0128442", "directors": ["John Dahl"], "location": "New York City, United States of America", "year": 1998, "num_of_locations": 3}}, {"geometry": {"type": "Point", "coordinates": [-115.1492249, 36.1662859]}, "type": "Feature", "properties": {"rating": 7.4, "genres": ["Crime", "Drama"], "marker-color": "0044FF", "marker-symbol": "cinema", "title": "Rounders", "url": "www.imdb.com/title/tt0128442", "id": "0128442", "directors": ["John Dahl"], "location": "Las Vegas, Clark County, Nevada, United States of America", "year": 1998, "num_of_locations": 3}}, {"geometry": {"type": "Point", "coordinates": [-99.5120985, 31.8160381]}, "type": "Feature", "properties": {"rating": 7.4, "genres": ["Crime", "Drama"], "marker-color": "0044FF", "marker-symbol": "cinema", "title": "Rounders", "url": "www.imdb.com/title/tt0128442", "id": "0128442", "directors": ["John Dahl"], "location": "Texas, United States of America", "year": 1998, "num_of_locations": 3}}, {"geometry": {"type": "Point", "coordinates": [-84.2532826, 40.8742173]}, "type": "Feature", "properties": {"rating": 7.7, "genres": ["Comedy", "Drama"], "marker-color": "0044FF", "marker-symbol": "cinema", "title": "Rushmore", "url": "www.imdb.com/title/tt0128445", "id": "0128445", "directors": ["Wes Anderson"], "location": "Rushmore, Putnam County, Ohio, United States of America", "year": 1998, "num_of_locations": 1}}, {"geometry": {"type": "Point", "coordinates": [-73.9865811, 40.7305991]}, "type": "Feature", "properties": {"rating": 6.6, "genres": ["Comedy", "Drama", "Romance"], "marker-color": "0044FF", "marker-symbol": "cinema", "title": "You've Got Mail", "url": "www.imdb.com/title/tt0128853", "id": "0128853", "directors": ["Nora Ephron"], "location": "New York City, United States of America", "year": 1998, "num_of_locations": 2}}, {"geometry": {"type": "Point", "coordinates": [-73.9597221, 40.7902778]}, "type": "Feature", "properties": {"rating": 6.6, "genres": ["Comedy", "Drama", "Romance"], "marker-color": "0044FF", "marker-symbol": "cinema", "title": "You've Got Mail", "url": "www.imdb.com/title/tt0128853", "id": "0128853", "directors": ["Nora Ephron"], "location": "Manhattan, New York City, New York County, New York, United States of America", "year": 1998, "num_of_locations": 2}}, {"geometry": {"type": "Point", "coordinates": [168.3283655, -46.5744046]}, "type": "Feature", "properties": {"rating": 6.2, "genres": ["Thriller", "Drama"], "marker-color": "0044FF", "marker-symbol": "cinema", "title": "Dark Harbor", "url": "www.imdb.com/title/tt0129023", "id": "0129023", "directors": ["Adam Coleman Howard"], "location": "Invercargill, Invercargill City, New Zealand", "year": 1998, "num_of_locations": 1}}, {"geometry": {"type": "Point", "coordinates": [-80.1936588, 25.7742658]}, "type": "Feature", "properties": {"rating": 7.1, "genres": ["Comedy", "Romance"], "marker-color": "0044FF", "marker-symbol": "cinema", "title": "There's Something About Mary", "url": "www.imdb.com/title/tt0129387", "id": "0129387", "directors": ["Bobby Farrelly", "Peter Farrelly"], "location": "Miami, Miami-Dade County, Florida, United States of America", "year": 1998, "num_of_locations": 2}}, {"geometry": {"type": "Point", "coordinates": [-81.4639834, 27.7567667]}, "type": "Feature", "properties": {"rating": 7.1, "genres": ["Comedy", "Romance"], "marker-color": "0044FF", "marker-symbol": "cinema", "title": "There's Something About Mary", "url": "www.imdb.com/title/tt0129387", "id": "0129387", "directors": ["Bobby Farrelly", "Peter Farrelly"], "location": "Florida, United States of America", "year": 1998, "num_of_locations": 2}}, {"geometry": {"type": "Point", "coordinates": [-78.0000546, 24.7736546]}, "type": "Feature", "properties": {"rating": 4.6, "genres": ["Horror", "Mystery"], "marker-color": "0044FF", "marker-symbol": "cinema", "title": "I Still Know What You Did Last Summer", "url": "www.imdb.com/title/tt0130018", "id": "0130018", "directors": ["Danny Cannon"], "location": "The Bahamas", "year": 1998, "num_of_locations": 4}}, {"geometry": {"type": "Point", "coordinates": [-71.0595677, 42.3604823]}, "type": "Feature", "properties": {"rating": 4.6, "genres": ["Horror", "Mystery"], "marker-color": "0044FF", "marker-symbol": "cinema", "title": "I Still Know What You Did Last Summer", "url": "www.imdb.com/title/tt0130018", "id": "0130018", "directors": ["Danny Cannon"], "location": "Boston, Suffolk, Massachusetts, United States of America", "year": 1998, "num_of_locations": 4}}, {"geometry": {"type": "Point", "coordinates": [-53.1999999, -10.3333332]}, "type": "Feature", "properties": {"rating": 4.6, "genres": ["Horror", "Mystery"], "marker-color": "0044FF", "marker-symbol": "cinema", "title": "I Still Know What You Did Last Summer", "url": "www.imdb.com/title/tt0130018", "id": "0130018", "directors": ["Danny Cannon"], "location": "Brazil", "year": 1998, "num_of_locations": 4}}, {"geometry": {"type": "Point", "coordinates": [-3.004175, 53.6475988]}, "type": "Feature", "properties": {"rating": 4.6, "genres": ["Horror", "Mystery"], "marker-color": "0044FF", "marker-symbol": "cinema", "title": "I Still Know What You Did Last Summer", "url": "www.imdb.com/title/tt0130018", "id": "0130018", "directors": ["Danny Cannon"], "location": "Southport, England, United Kingdom", "year": 1998, "num_of_locations": 4}}, {"geometry": {"type": "Point", "coordinates": [13.3888599, 52.5170365]}, "type": "Feature", "properties": {"rating": 7.3, "genres": ["Biography", "Drama", "Romance", "War"], "marker-color": "0044FF", "marker-symbol": "cinema", "title": "Aim\u00e9e & Jaguar", "url": "www.imdb.com/title/tt0130444", "id": "0130444", "directors": ["Max F\u00e4rberb\u00f6ck"], "location": "Berlin, Germany", "year": 1999, "num_of_locations": 2}}, {"geometry": {"type": "Point", "coordinates": [10.4234469, 51.0834196]}, "type": "Feature", "properties": {"rating": 7.3, "genres": ["Biography", "Drama", "Romance", "War"], "marker-color": "0044FF", "marker-symbol": "cinema", "title": "Aim\u00e9e & Jaguar", "url": "www.imdb.com/title/tt0130444", "id": "0130444", "directors": ["Max F\u00e4rberb\u00f6ck"], "location": "Germany", "year": 1999, "num_of_locations": 2}}, {"geometry": {"type": "Point", "coordinates": [-118.3299898, 34.1028268]}, "type": "Feature", "properties": {"rating": 6.4, "genres": ["Comedy"], "marker-color": "0044FF", "marker-symbol": "cinema", "title": "Bowfinger", "url": "www.imdb.com/title/tt0131325", "id": "0131325", "directors": ["Frank Oz"], "location": "Hollywood, Los Angeles, Los Angeles County, California, United States of America", "year": 1999, "num_of_locations": 1}}, {"geometry": {"type": "Point", "coordinates": [-122.4192362, 37.7792808]}, "type": "Feature", "properties": {"rating": 6.1, "genres": ["Comedy", "Drama"], "marker-color": "0044FF", "marker-symbol": "cinema", "title": "Edtv", "url": "www.imdb.com/title/tt0131369", "id": "0131369", "directors": ["Ron Howard"], "location": "San Francisco, San Francisco City and County, California, United States of America", "year": 1999, "num_of_locations": 1}}, {"geometry": {"type": "Point", "coordinates": [-86.1583501, 39.7683331]}, "type": "Feature", "properties": {"rating": 7.8, "genres": ["Biography", "Drama", "Family"], "marker-color": "0044FF", "marker-symbol": "cinema", "title": "October Sky", "url": "www.imdb.com/title/tt0132477", "id": "0132477", "directors": ["Joe Johnston"], "location": "Indianapolis, Marion County, Indiana, United States of America", "year": 1999, "num_of_locations": 6}}, {"geometry": {"type": "Point", "coordinates": [86.9254625, 27.988655]}, "type": "Feature", "properties": {"rating": 7.8, "genres": ["Biography", "Drama", "Family"], "marker-color": "0044FF", "marker-symbol": "cinema", "title": "October Sky", "url": "www.imdb.com/title/tt0132477", "id": "0132477", "directors": ["Joe Johnston"], "location": "Mount Everest, Nepal", "year": 1999, "num_of_locations": 6}}, {"geometry": {"type": "Point", "coordinates": [-81.6526086, 37.3873354]}, "type": "Feature", "properties": {"rating": 7.8, "genres": ["Biography", "Drama", "Family"], "marker-color": "0044FF", "marker-symbol": "cinema", "title": "October Sky", "url": "www.imdb.com/title/tt0132477", "id": "0132477", "directors": ["Joe Johnston"], "location": "Coalwood, McDowell County, West Virginia, United States of America", "year": 1999, "num_of_locations": 6}}, {"geometry": {"type": "Point", "coordinates": [-80.8408414, 38.4758406]}, "type": "Feature", "properties": {"rating": 7.8, "genres": ["Biography", "Drama", "Family"], "marker-color": "0044FF", "marker-symbol": "cinema", "title": "October Sky", "url": "www.imdb.com/title/tt0132477", "id": "0132477", "directors": ["Joe Johnston"], "location": "West Virginia, United States of America", "year": 1999, "num_of_locations": 6}}, {"geometry": {"type": "Point", "coordinates": [-86.1746932, 40.3270127]}, "type": "Feature", "properties": {"rating": 7.8, "genres": ["Biography", "Drama", "Family"], "marker-color": "0044FF", "marker-symbol": "cinema", "title": "October Sky", "url": "www.imdb.com/title/tt0132477", "id": "0132477", "directors": ["Joe Johnston"], "location": "Indiana, United States of America", "year": 1999, "num_of_locations": 6}}, {"geometry": {"type": "Point", "coordinates": [24.0392432, 49.8481719]}, "type": "Feature", "properties": {"rating": 7.8, "genres": ["Biography", "Drama", "Family"], "marker-color": "0044FF", "marker-symbol": "cinema", "title": "October Sky", "url": "www.imdb.com/title/tt0132477", "id": "0132477", "directors": ["Joe Johnston"], "location": "Castle Hill, Lviv, Lviv City Council, Ukraine", "year": 1999, "num_of_locations": 6}}, {"geometry": {"type": "Point", "coordinates": [106.2464193, 21.2018294]}, "type": "Feature", "properties": {"rating": 8.7, "genres": ["Action", "Sci-Fi"], "marker-color": "0044FF", "marker-symbol": "cinema", "title": "The Matrix", "url": "www.imdb.com/title/tt0133093", "id": "0133093", "directors": ["Lana Wachowski", "Lilly Wachowski"], "location": "Neo, Y\u00ean D\u0169ng District, Vietnam", "year": 1999, "num_of_locations": 4}}, {"geometry": {"type": "Point", "coordinates": [-74.3300999, 40.39642]}, "type": "Feature", "properties": {"rating": 8.7, "genres": ["Action", "Sci-Fi"], "marker-color": "0044FF", "marker-symbol": "cinema", "title": "The Matrix", "url": "www.imdb.com/title/tt0133093", "id": "0133093", "directors": ["Lana Wachowski", "Lilly Wachowski"], "location": "Adams Street, Old Bridge Township, NJ 08857, United States of America", "year": 1999, "num_of_locations": 4}}, {"geometry": {"type": "Point", "coordinates": [2.3406889, 48.8765114]}, "type": "Feature", "properties": {"rating": 8.7, "genres": ["Action", "Sci-Fi"], "marker-color": "0044FF", "marker-symbol": "cinema", "title": "The Matrix", "url": "www.imdb.com/title/tt0133093", "id": "0133093", "directors": ["Lana Wachowski", "Lilly Wachowski"], "location": "Kung Fu, Rue Lamartine, 75009 Paris, France", "year": 1999, "num_of_locations": 4}}, {"geometry": {"type": "Point", "coordinates": [121.1297478, 16.3131877]}, "type": "Feature", "properties": {"rating": 8.7, "genres": ["Action", "Sci-Fi"], "marker-color": "0044FF", "marker-symbol": "cinema", "title": "The Matrix", "url": "www.imdb.com/title/tt0133093", "id": "0133093", "directors": ["Lana Wachowski", "Lilly Wachowski"], "location": "Wonderland, Nueva Vizcaya, Philippines", "year": 1999, "num_of_locations": 4}}, {"geometry": {"type": "Point", "coordinates": [10.0, 51.0]}, "type": "Feature", "properties": {"rating": 5.9, "genres": ["Adventure", "Comedy", "Family", "Fantasy"], "marker-color": "0044FF", "marker-symbol": "cinema", "title": "Ast\u00e9rix & Ob\u00e9lix contre C\u00e9sar", "url": "www.imdb.com/title/tt0133385", "id": "0133385", "directors": ["Claude Zidi"], "location": "Europe", "year": 1999, "num_of_locations": 5}}, {"geometry": {"type": "Point", "coordinates": [2.2477303, 48.5902899]}, "type": "Feature", "properties": {"rating": 5.9, "genres": ["Adventure", "Comedy", "Family", "Fantasy"], "marker-color": "0044FF", "marker-symbol": "cinema", "title": "Ast\u00e9rix & Ob\u00e9lix contre C\u00e9sar", "url": "www.imdb.com/title/tt0133385", "id": "0133385", "directors": ["Claude Zidi"], "location": "91290 Arpajon, France", "year": 1999, "num_of_locations": 5}}, {"geometry": {"type": "Point", "coordinates": [7.6535842, 50.1813995]}, "type": "Feature", "properties": {"rating": 5.9, "genres": ["Adventure", "Comedy", "Family", "Fantasy"], "marker-color": "0044FF", "marker-symbol": "cinema", "title": "Ast\u00e9rix & Ob\u00e9lix contre C\u00e9sar", "url": "www.imdb.com/title/tt0133385", "id": "0133385", "directors": ["Claude Zidi"], "location": "Gaul, Kestert, Rhineland-Palatinate, Germany", "year": 1999, "num_of_locations": 5}}, {"geometry": {"type": "Point", "coordinates": [11.4038717, 48.9467562]}, "type": "Feature", "properties": {"rating": 5.9, "genres": ["Adventure", "Comedy", "Family", "Fantasy"], "marker-color": "0044FF", "marker-symbol": "cinema", "title": "Ast\u00e9rix & Ob\u00e9lix contre C\u00e9sar", "url": "www.imdb.com/title/tt0133385", "id": "0133385", "directors": ["Claude Zidi"], "location": "Bavaria, Germany", "year": 1999, "num_of_locations": 5}}, {"geometry": {"type": "Point", "coordinates": [-2.6841472, 48.1628283]}, "type": "Feature", "properties": {"rating": 5.9, "genres": ["Adventure", "Comedy", "Family", "Fantasy"], "marker-color": "0044FF", "marker-symbol": "cinema", "title": "Ast\u00e9rix & Ob\u00e9lix contre C\u00e9sar", "url": "www.imdb.com/title/tt0133385", "id": "0133385", "directors": ["Claude Zidi"], "location": "Brittany, Chemin du Feu du Breuil, 22600 Loud\u00e9ac, France", "year": 1999, "num_of_locations": 5}}, {"geometry": {"type": "Point", "coordinates": [-116.8537226, 39.5158825]}, "type": "Feature", "properties": {"rating": 6.2, "genres": ["Crime", "Drama", "Thriller"], "marker-color": "0044FF", "marker-symbol": "cinema", "title": "Best Laid Plans", "url": "www.imdb.com/title/tt0133412", "id": "0133412", "directors": ["Mike Barker"], "location": "Nevada, United States of America", "year": 1999, "num_of_locations": 3}}, {"geometry": {"type": "Point", "coordinates": [-73.3445613, 8.4551092]}, "type": "Feature", "properties": {"rating": 6.2, "genres": ["Crime", "Drama", "Thriller"], "marker-color": "0044FF", "marker-symbol": "cinema", "title": "Best Laid Plans", "url": "www.imdb.com/title/tt0133412", "id": "0133412", "directors": ["Mike Barker"], "location": "Tropico, Convenci\u00f3n, Colombia", "year": 1999, "num_of_locations": 3}}, {"geometry": {"type": "Point", "coordinates": [-99.5120985, 31.8160381]}, "type": "Feature", "properties": {"rating": 6.2, "genres": ["Crime", "Drama", "Thriller"], "marker-color": "0044FF", "marker-symbol": "cinema", "title": "Best Laid Plans", "url": "www.imdb.com/title/tt0133412", "id": "0133412", "directors": ["Mike Barker"], "location": "Texas, United States of America", "year": 1999, "num_of_locations": 3}}, {"geometry": {"type": "Point", "coordinates": [-82.6881394, 40.2253569]}, "type": "Feature", "properties": {"rating": 6.4, "genres": ["Horror", "Sci-Fi"], "marker-color": "0044FF", "marker-symbol": "cinema", "title": "The Faculty", "url": "www.imdb.com/title/tt0133751", "id": "0133751", "directors": ["Robert Rodriguez"], "location": "Ohio, United States of America", "year": 1998, "num_of_locations": 3}}, {"geometry": {"type": "Point", "coordinates": [-84.3901848, 33.7490987]}, "type": "Feature", "properties": {"rating": 6.4, "genres": ["Horror", "Sci-Fi"], "marker-color": "0044FF", "marker-symbol": "cinema", "title": "The Faculty", "url": "www.imdb.com/title/tt0133751", "id": "0133751", "directors": ["Robert Rodriguez"], "location": "Atlanta, Fulton County, Georgia, United States of America", "year": 1998, "num_of_locations": 3}}, {"geometry": {"type": "Point", "coordinates": [44.0287382, 41.6809707]}, "type": "Feature", "properties": {"rating": 6.4, "genres": ["Horror", "Sci-Fi"], "marker-color": "0044FF", "marker-symbol": "cinema", "title": "The Faculty", "url": "www.imdb.com/title/tt0133751", "id": "0133751", "directors": ["Robert Rodriguez"], "location": "Georgia", "year": 1998, "num_of_locations": 3}}, {"geometry": {"type": "Point", "coordinates": [-74.0418198, 40.6073571]}, "type": "Feature", "properties": {"rating": 6.3, "genres": ["Action", "Thriller"], "marker-color": "0044FF", "marker-symbol": "cinema", "title": "The Siege", "url": "www.imdb.com/title/tt0133952", "id": "0133952", "directors": ["Edward Zwick"], "location": "Verrazano-Narrows Bridge, New York City, NY 10305, United States of America", "year": 1998, "num_of_locations": 17}}, {"geometry": {"type": "Point", "coordinates": [42.3528328, 25.6242618]}, "type": "Feature", "properties": {"rating": 6.3, "genres": ["Action", "Thriller"], "marker-color": "0044FF", "marker-symbol": "cinema", "title": "The Siege", "url": "www.imdb.com/title/tt0133952", "id": "0133952", "directors": ["Edward Zwick"], "location": "Saudi Arabia", "year": 1998, "num_of_locations": 17}}, {"geometry": {"type": "Point", "coordinates": [-74.1496047, 40.5834557]}, "type": "Feature", "properties": {"rating": 6.3, "genres": ["Action", "Thriller"], "marker-color": "0044FF", "marker-symbol": "cinema", "title": "The Siege", "url": "www.imdb.com/title/tt0133952", "id": "0133952", "directors": ["Edward Zwick"], "location": "Staten Island, New York City, Richmond, New York, United States of America", "year": 1998, "num_of_locations": 17}}, {"geometry": {"type": "Point", "coordinates": [126.6252, -7.5841999]}, "type": "Feature", "properties": {"rating": 6.3, "genres": ["Action", "Thriller"], "marker-color": "0044FF", "marker-symbol": "cinema", "title": "The Siege", "url": "www.imdb.com/title/tt0133952", "id": "0133952", "directors": ["Edward Zwick"], "location": "Wesiri, Moluccas, Indonesia", "year": 1998, "num_of_locations": 17}}, {"geometry": {"type": "Point", "coordinates": [-73.9865811, 40.7305991]}, "type": "Feature", "properties": {"rating": 6.3, "genres": ["Action", "Thriller"], "marker-color": "0044FF", "marker-symbol": "cinema", "title": "The Siege", "url": "www.imdb.com/title/tt0133952", "id": "0133952", "directors": ["Edward Zwick"], "location": "New York City, United States of America", "year": 1998, "num_of_locations": 17}}, {"geometry": {"type": "Point", "coordinates": [-88.7321584, 45.1895845]}, "type": "Feature", "properties": {"rating": 6.3, "genres": ["Action", "Thriller"], "marker-color": "0044FF", "marker-symbol": "cinema", "title": "The Siege", "url": "www.imdb.com/title/tt0133952", "id": "0133952", "directors": ["Edward Zwick"], "location": "U.S., State Highway 55, Langlade, WI 54462, United States of America", "year": 1998, "num_of_locations": 17}}, {"geometry": {"type": "Point", "coordinates": [-77.0366455, 38.8949549]}, "type": "Feature", "properties": {"rating": 6.3, "genres": ["Action", "Thriller"], "marker-color": "0044FF", "marker-symbol": "cinema", "title": "The Siege", "url": "www.imdb.com/title/tt0133952", "id": "0133952", "directors": ["Edward Zwick"], "location": "Washington, District of Columbia, United States of America", "year": 1998, "num_of_locations": 17}}, {"geometry": {"type": "Point", "coordinates": [-94.9427678, 47.1138266]}, "type": "Feature", "properties": {"rating": 6.3, "genres": ["Action", "Thriller"], "marker-color": "0044FF", "marker-symbol": "cinema", "title": "The Siege", "url": "www.imdb.com/title/tt0133952", "id": "0133952", "directors": ["Edward Zwick"], "location": "Hubbard County, Minnesota, United States of America", "year": 1998, "num_of_locations": 17}}, {"geometry": {"type": "Point", "coordinates": [-73.9597221, 40.7902778]}, "type": "Feature", "properties": {"rating": 6.3, "genres": ["Action", "Thriller"], "marker-color": "0044FF", "marker-symbol": "cinema", "title": "The Siege", "url": "www.imdb.com/title/tt0133952", "id": "0133952", "directors": ["Edward Zwick"], "location": "Manhattan, New York City, New York County, New York, United States of America", "year": 1998, "num_of_locations": 17}}, {"geometry": {"type": "Point", "coordinates": [-100.4458824, 39.7837304]}, "type": "Feature", "properties": {"rating": 6.3, "genres": ["Action", "Thriller"], "marker-color": "0044FF", "marker-symbol": "cinema", "title": "The Siege", "url": "www.imdb.com/title/tt0133952", "id": "0133952", "directors": ["Edward Zwick"], "location": "United States of America", "year": 1998, "num_of_locations": 17}}, {"geometry": {"type": "Point", "coordinates": [-73.9495822, 40.6501038]}, "type": "Feature", "properties": {"rating": 6.3, "genres": ["Action", "Thriller"], "marker-color": "0044FF", "marker-symbol": "cinema", "title": "The Siege", "url": "www.imdb.com/title/tt0133952", "id": "0133952", "directors": ["Edward Zwick"], "location": "Brooklyn, New York City, Kings County, New York, United States of America", "year": 1998, "num_of_locations": 17}}, {"geometry": {"type": "Point", "coordinates": [-73.9265211, 40.8295828]}, "type": "Feature", "properties": {"rating": 6.3, "genres": ["Action", "Thriller"], "marker-color": "0044FF", "marker-symbol": "cinema", "title": "The Siege", "url": "www.imdb.com/title/tt0133952", "id": "0133952", "directors": ["Edward Zwick"], "location": "East 161st Street, Yankee Stadium, 1, New York City, NY 10451, United States of America", "year": 1998, "num_of_locations": 17}}, {"geometry": {"type": "Point", "coordinates": [-73.9392967, 40.8417838]}, "type": "Feature", "properties": {"rating": 6.3, "genres": ["Action", "Thriller"], "marker-color": "0044FF", "marker-symbol": "cinema", "title": "The Siege", "url": "www.imdb.com/title/tt0133952", "id": "0133952", "directors": ["Edward Zwick"], "location": "Broadway, New York City, NY 10034, United States of America", "year": 1998, "num_of_locations": 17}}, {"geometry": {"type": "Point", "coordinates": [-73.7793733, 40.6429479]}, "type": "Feature", "properties": {"rating": 6.3, "genres": ["Action", "Thriller"], "marker-color": "0044FF", "marker-symbol": "cinema", "title": "The Siege", "url": "www.imdb.com/title/tt0133952", "id": "0133952", "directors": ["Edward Zwick"], "location": "John F. Kennedy International Airport, Terminal 5 Arrivals, New York City, NY 11430, United States of America", "year": 1998, "num_of_locations": 17}}, {"geometry": {"type": "Point", "coordinates": [-73.9855698, 40.7579523]}, "type": "Feature", "properties": {"rating": 6.3, "genres": ["Action", "Thriller"], "marker-color": "0044FF", "marker-symbol": "cinema", "title": "The Siege", "url": "www.imdb.com/title/tt0133952", "id": "0133952", "directors": ["Edward Zwick"], "location": "Times Square, 7th Avenue, New York City, NY 10036, United States of America", "year": 1998, "num_of_locations": 17}}, {"geometry": {"type": "Point", "coordinates": [50.1202146, 26.2966528]}, "type": "Feature", "properties": {"rating": 6.3, "genres": ["Action", "Thriller"], "marker-color": "0044FF", "marker-symbol": "cinema", "title": "The Siege", "url": "www.imdb.com/title/tt0133952", "id": "0133952", "directors": ["Edward Zwick"], "location": "Dhahran, Eastern Region, Saudi Arabia", "year": 1998, "num_of_locations": 17}}, {"geometry": {"type": "Point", "coordinates": [21.8447358, 48.5906257]}, "type": "Feature", "properties": {"rating": 6.3, "genres": ["Action", "Thriller"], "marker-color": "0044FF", "marker-symbol": "cinema", "title": "The Siege", "url": "www.imdb.com/title/tt0133952", "id": "0133952", "directors": ["Edward Zwick"], "location": "072 06 Markovce, Slovakia", "year": 1998, "num_of_locations": 17}}, {"geometry": {"type": "Point", "coordinates": [-78.4408437, 38.0573603]}, "type": "Feature", "properties": {"rating": 6.4, "genres": ["Action", "Crime", "Thriller"], "marker-color": "0044FF", "marker-symbol": "cinema", "title": "A Murder of Crows", "url": "www.imdb.com/title/tt0133985", "id": "0133985", "directors": ["Rowdy Herrington"], "location": "Key West, Albemarle County, Virginia, United States of America", "year": 1998, "num_of_locations": 3}}, {"geometry": {"type": "Point", "coordinates": [-90.0701155, 29.9499323]}, "type": "Feature", "properties": {"rating": 6.4, "genres": ["Action", "Crime", "Thriller"], "marker-color": "0044FF", "marker-symbol": "cinema", "title": "A Murder of Crows", "url": "www.imdb.com/title/tt0133985", "id": "0133985", "directors": ["Rowdy Herrington"], "location": "New Orleans, Orleans Parish, Louisiana, United States of America", "year": 1998, "num_of_locations": 3}}, {"geometry": {"type": "Point", "coordinates": [-80.8328747, 23.0131338]}, "type": "Feature", "properties": {"rating": 6.4, "genres": ["Action", "Crime", "Thriller"], "marker-color": "0044FF", "marker-symbol": "cinema", "title": "A Murder of Crows", "url": "www.imdb.com/title/tt0133985", "id": "0133985", "directors": ["Rowdy Herrington"], "location": "Cuba", "year": 1998, "num_of_locations": 3}}, {"geometry": {"type": "Point", "coordinates": [10.0, 51.0]}, "type": "Feature", "properties": {"rating": 7.3, "genres": ["Crime", "Drama", "Thriller"], "marker-color": "0044FF", "marker-symbol": "cinema", "title": "The Talented Mr. Ripley", "url": "www.imdb.com/title/tt0134119", "id": "0134119", "directors": ["Anthony Minghella"], "location": "Europe", "year": 1999, "num_of_locations": 9}}, {"geometry": {"type": "Point", "coordinates": [12.674297, 42.6384261]}, "type": "Feature", "properties": {"rating": 7.3, "genres": ["Crime", "Drama", "Thriller"], "marker-color": "0044FF", "marker-symbol": "cinema", "title": "The Talented Mr. Ripley", "url": "www.imdb.com/title/tt0134119", "id": "0134119", "directors": ["Anthony Minghella"], "location": "Italy", "year": 1999, "num_of_locations": 9}}, {"geometry": {"type": "Point", "coordinates": [7.7748827, 43.8198253]}, "type": "Feature", "properties": {"rating": 7.3, "genres": ["Crime", "Drama", "Thriller"], "marker-color": "0044FF", "marker-symbol": "cinema", "title": "The Talented Mr. Ripley", "url": "www.imdb.com/title/tt0134119", "id": "0134119", "directors": ["Anthony Minghella"], "location": "Sanremo, IM, Italy", "year": 1999, "num_of_locations": 9}}, {"geometry": {"type": "Point", "coordinates": [-74.6592957, 40.3492744]}, "type": "Feature", "properties": {"rating": 7.3, "genres": ["Crime", "Drama", "Thriller"], "marker-color": "0044FF", "marker-symbol": "cinema", "title": "The Talented Mr. Ripley", "url": "www.imdb.com/title/tt0134119", "id": "0134119", "directors": ["Anthony Minghella"], "location": "Princeton, Mercer County, New Jersey, United States of America", "year": 1999, "num_of_locations": 9}}, {"geometry": {"type": "Point", "coordinates": [-73.9865811, 40.7305991]}, "type": "Feature", "properties": {"rating": 7.3, "genres": ["Crime", "Drama", "Thriller"], "marker-color": "0044FF", "marker-symbol": "cinema", "title": "The Talented Mr. Ripley", "url": "www.imdb.com/title/tt0134119", "id": "0134119", "directors": ["Anthony Minghella"], "location": "New York City, United States of America", "year": 1999, "num_of_locations": 9}}, {"geometry": {"type": "Point", "coordinates": [-100.4458824, 39.7837304]}, "type": "Feature", "properties": {"rating": 7.3, "genres": ["Crime", "Drama", "Thriller"], "marker-color": "0044FF", "marker-symbol": "cinema", "title": "The Talented Mr. Ripley", "url": "www.imdb.com/title/tt0134119", "id": "0134119", "directors": ["Anthony Minghella"], "location": "United States of America", "year": 1999, "num_of_locations": 9}}, {"geometry": {"type": "Point", "coordinates": [1.215829, 6.130419]}, "type": "Feature", "properties": {"rating": 7.3, "genres": ["Crime", "Drama", "Thriller"], "marker-color": "0044FF", "marker-symbol": "cinema", "title": "The Talented Mr. Ripley", "url": "www.imdb.com/title/tt0134119", "id": "0134119", "directors": ["Anthony Minghella"], "location": "Lom\u00e9, Togo", "year": 1999, "num_of_locations": 9}}, {"geometry": {"type": "Point", "coordinates": [-75.6888389, 4.8180312]}, "type": "Feature", "properties": {"rating": 7.3, "genres": ["Crime", "Drama", "Thriller"], "marker-color": "0044FF", "marker-symbol": "cinema", "title": "The Talented Mr. Ripley", "url": "www.imdb.com/title/tt0134119", "id": "0134119", "directors": ["Anthony Minghella"], "location": "America, Pereira, Colombia", "year": 1999, "num_of_locations": 9}}, {"geometry": {"type": "Point", "coordinates": [-73.9597221, 40.7902778]}, "type": "Feature", "properties": {"rating": 7.3, "genres": ["Crime", "Drama", "Thriller"], "marker-color": "0044FF", "marker-symbol": "cinema", "title": "The Talented Mr. Ripley", "url": "www.imdb.com/title/tt0134119", "id": "0134119", "directors": ["Anthony Minghella"], "location": "Manhattan, New York City, New York County, New York, United States of America", "year": 1999, "num_of_locations": 9}}, {"geometry": {"type": "Point", "coordinates": [-118.3299898, 34.1028268]}, "type": "Feature", "properties": {"rating": 6.5, "genres": ["Mystery", "Thriller"], "marker-color": "0044FF", "marker-symbol": "cinema", "title": "8MM", "url": "www.imdb.com/title/tt0134273", "id": "0134273", "directors": ["Joel Schumacher"], "location": "Hollywood, Los Angeles, Los Angeles County, California, United States of America", "year": 1999, "num_of_locations": 4}}, {"geometry": {"type": "Point", "coordinates": [-73.9865811, 40.7305991]}, "type": "Feature", "properties": {"rating": 6.5, "genres": ["Mystery", "Thriller"], "marker-color": "0044FF", "marker-symbol": "cinema", "title": "8MM", "url": "www.imdb.com/title/tt0134273", "id": "0134273", "directors": ["Joel Schumacher"], "location": "New York City, United States of America", "year": 1999, "num_of_locations": 4}}, {"geometry": {"type": "Point", "coordinates": [-2.5492122, 54.4400129]}, "type": "Feature", "properties": {"rating": 6.5, "genres": ["Mystery", "Thriller"], "marker-color": "0044FF", "marker-symbol": "cinema", "title": "8MM", "url": "www.imdb.com/title/tt0134273", "id": "0134273", "directors": ["Joel Schumacher"], "location": "Longdale, Cumbria, England, United Kingdom", "year": 1999, "num_of_locations": 4}}, {"geometry": {"type": "Point", "coordinates": [-121.4389309, 36.8522795]}, "type": "Feature", "properties": {"rating": 6.5, "genres": ["Mystery", "Thriller"], "marker-color": "0044FF", "marker-symbol": "cinema", "title": "8MM", "url": "www.imdb.com/title/tt0134273", "id": "0134273", "directors": ["Joel Schumacher"], "location": "Mini Max Storage & RV Parking, Cottage Corners, CA 59023, United States of America", "year": 1999, "num_of_locations": 4}}, {"geometry": {"type": "Point", "coordinates": [-87.6244211, 41.8755546]}, "type": "Feature", "properties": {"rating": 5.5, "genres": ["Horror", "Mystery", "Sci-Fi", "Thriller"], "marker-color": "0044FF", "marker-symbol": "cinema", "title": "Disturbing Behavior", "url": "www.imdb.com/title/tt0134619", "id": "0134619", "directors": ["David Nutter"], "location": "Chicago, Cook County, Illinois, United States of America", "year": 1998, "num_of_locations": 3}}, {"geometry": {"type": "Point", "coordinates": [-122.43458, 47.83315]}, "type": "Feature", "properties": {"rating": 5.5, "genres": ["Horror", "Mystery", "Sci-Fi", "Thriller"], "marker-color": "0044FF", "marker-symbol": "cinema", "title": "Disturbing Behavior", "url": "www.imdb.com/title/tt0134619", "id": "0134619", "directors": ["David Nutter"], "location": "Kitsap County, Washington, United States of America", "year": 1998, "num_of_locations": 3}}, {"geometry": {"type": "Point", "coordinates": [-112.4716243, 40.8082739]}, "type": "Feature", "properties": {"rating": 5.5, "genres": ["Horror", "Mystery", "Sci-Fi", "Thriller"], "marker-color": "0044FF", "marker-symbol": "cinema", "title": "Disturbing Behavior", "url": "www.imdb.com/title/tt0134619", "id": "0134619", "directors": ["David Nutter"], "location": "Cradle Bay, Stansbury Island Mountain Biking Trail, UT, United States of America", "year": 1998, "num_of_locations": 3}}, {"geometry": {"type": "Point", "coordinates": [-73.0992276, 40.8517821]}, "type": "Feature", "properties": {"rating": 5.9, "genres": ["Comedy", "Drama", "Romance"], "marker-color": "0044FF", "marker-symbol": "cinema", "title": "200 Cigarettes", "url": "www.imdb.com/title/tt0137338", "id": "0137338", "directors": ["Risa Bramon Garcia"], "location": "Lake Ronkonkoma, Suffolk County, New York, United States of America", "year": 1999, "num_of_locations": 2}}, {"geometry": {"type": "Point", "coordinates": [-73.9873612, 40.7292688]}, "type": "Feature", "properties": {"rating": 5.9, "genres": ["Comedy", "Drama", "Romance"], "marker-color": "0044FF", "marker-symbol": "cinema", "title": "200 Cigarettes", "url": "www.imdb.com/title/tt0137338", "id": "0137338", "directors": ["Risa Bramon Garcia"], "location": "New York City, NY 10003, United States of America", "year": 1999, "num_of_locations": 2}}, {"geometry": {"type": "Point", "coordinates": [-90.1978888, 38.6272733]}, "type": "Feature", "properties": {"rating": 7.2, "genres": ["Crime", "Drama", "Thriller"], "marker-color": "0044FF", "marker-symbol": "cinema", "title": "Arlington Road", "url": "www.imdb.com/title/tt0137363", "id": "0137363", "directors": ["Mark Pellington"], "location": "St. Louis, City of St. Louis, Missouri, United States of America", "year": 1999, "num_of_locations": 3}}, {"geometry": {"type": "Point", "coordinates": [-97.5170535, 35.4729886]}, "type": "Feature", "properties": {"rating": 7.2, "genres": ["Crime", "Drama", "Thriller"], "marker-color": "0044FF", "marker-symbol": "cinema", "title": "Arlington Road", "url": "www.imdb.com/title/tt0137363", "id": "0137363", "directors": ["Mark Pellington"], "location": "Oklahoma City, Oklahoma County, Oklahoma, United States of America", "year": 1999, "num_of_locations": 3}}, {"geometry": {"type": "Point", "coordinates": [-98.5821871, 38.27312]}, "type": "Feature", "properties": {"rating": 7.2, "genres": ["Crime", "Drama", "Thriller"], "marker-color": "0044FF", "marker-symbol": "cinema", "title": "Arlington Road", "url": "www.imdb.com/title/tt0137363", "id": "0137363", "directors": ["Mark Pellington"], "location": "Kansas, United States of America", "year": 1999, "num_of_locations": 3}}, {"geometry": {"type": "Point", "coordinates": [11.961919, 51.5053951]}, "type": "Feature", "properties": {"rating": 6.3, "genres": ["Action", "Crime", "Romance", "Thriller"], "marker-color": "0044FF", "marker-symbol": "cinema", "title": "Entrapment", "url": "www.imdb.com/title/tt0137494", "id": "0137494", "directors": ["Jon Amiel"], "location": "Pudu, Seebener Stra\u00dfe, 06114 Halle (Saale), Germany", "year": 1999, "num_of_locations": 4}}, {"geometry": {"type": "Point", "coordinates": [-4.1140517, 56.7861112]}, "type": "Feature", "properties": {"rating": 6.3, "genres": ["Action", "Crime", "Romance", "Thriller"], "marker-color": "0044FF", "marker-symbol": "cinema", "title": "Entrapment", "url": "www.imdb.com/title/tt0137494", "id": "0137494", "directors": ["Jon Amiel"], "location": "Scotland, United Kingdom", "year": 1999, "num_of_locations": 4}}, {"geometry": {"type": "Point", "coordinates": [-78.492772, 37.1232245]}, "type": "Feature", "properties": {"rating": 6.3, "genres": ["Action", "Crime", "Romance", "Thriller"], "marker-color": "0044FF", "marker-symbol": "cinema", "title": "Entrapment", "url": "www.imdb.com/title/tt0137494", "id": "0137494", "directors": ["Jon Amiel"], "location": "Virginia, United States of America", "year": 1999, "num_of_locations": 4}}, {"geometry": {"type": "Point", "coordinates": [101.7009528, 3.1570976]}, "type": "Feature", "properties": {"rating": 6.3, "genres": ["Action", "Crime", "Romance", "Thriller"], "marker-color": "0044FF", "marker-symbol": "cinema", "title": "Entrapment", "url": "www.imdb.com/title/tt0137494", "id": "0137494", "directors": ["Jon Amiel"], "location": "Kuala Lumpur, Malaysia", "year": 1999, "num_of_locations": 4}}, {"geometry": {"type": "Point", "coordinates": [-75.6888389, 4.8180312]}, "type": "Feature", "properties": {"rating": 7.2, "genres": ["Comedy", "Drama", "History", "Romance"], "marker-color": "0044FF", "marker-symbol": "cinema", "title": "Shakespeare in Love", "url": "www.imdb.com/title/tt0138097", "id": "0138097", "directors": ["John Madden"], "location": "America, Pereira, Colombia", "year": 1998, "num_of_locations": 2}}, {"geometry": {"type": "Point", "coordinates": [-78.492772, 37.1232245]}, "type": "Feature", "properties": {"rating": 7.2, "genres": ["Comedy", "Drama", "History", "Romance"], "marker-color": "0044FF", "marker-symbol": "cinema", "title": "Shakespeare in Love", "url": "www.imdb.com/title/tt0138097", "id": "0138097", "directors": ["John Madden"], "location": "Virginia, United States of America", "year": 1998, "num_of_locations": 2}}, {"geometry": {"type": "Point", "coordinates": [-111.7143583, 39.4225192]}, "type": "Feature", "properties": {"rating": 6.2, "genres": ["Comedy", "Fantasy", "Horror", "Thriller"], "marker-color": "0044FF", "marker-symbol": "cinema", "title": "Idle Hands", "url": "www.imdb.com/title/tt0138510", "id": "0138510", "directors": ["Rodman Flender"], "location": "Utah, United States of America", "year": 1999, "num_of_locations": 1}}, {"geometry": {"type": "Point", "coordinates": [-118.2444759, 34.054935]}, "type": "Feature", "properties": {"rating": 5.7, "genres": ["Fantasy", "Horror", "Sci-Fi"], "marker-color": "0044FF", "marker-symbol": "cinema", "title": "Phantasm IV: Oblivion", "url": "www.imdb.com/title/tt0138703", "id": "0138703", "directors": ["Don Coscarelli"], "location": "Los Angeles, Los Angeles County, California, United States of America", "year": 1998, "num_of_locations": 3}}, {"geometry": {"type": "Point", "coordinates": [-75.2877944, 40.7738941]}, "type": "Feature", "properties": {"rating": 5.7, "genres": ["Fantasy", "Horror", "Sci-Fi"], "marker-color": "0044FF", "marker-symbol": "cinema", "title": "Phantasm IV: Oblivion", "url": "www.imdb.com/title/tt0138703", "id": "0138703", "directors": ["Don Coscarelli"], "location": "Boulton, Northampton County, Pennsylvania, United States of America", "year": 1998, "num_of_locations": 3}}, {"geometry": {"type": "Point", "coordinates": [-116.9140436, 36.4240473]}, "type": "Feature", "properties": {"rating": 5.7, "genres": ["Fantasy", "Horror", "Sci-Fi"], "marker-color": "0044FF", "marker-symbol": "cinema", "title": "Phantasm IV: Oblivion", "url": "www.imdb.com/title/tt0138703", "id": "0138703", "directors": ["Don Coscarelli"], "location": "Death Valley, Timbisha, CA 92328, United States of America", "year": 1998, "num_of_locations": 3}}, {"geometry": {"type": "Point", "coordinates": [-73.9865811, 40.7305991]}, "type": "Feature", "properties": {"rating": 7.5, "genres": ["Drama", "Horror", "Mystery", "Sci-Fi", "Thriller"], "marker-color": "0044FF", "marker-symbol": "cinema", "title": "Pi", "url": "www.imdb.com/title/tt0138704", "id": "0138704", "directors": ["Darren Aronofsky"], "location": "New York City, United States of America", "year": 1998, "num_of_locations": 2}}, {"geometry": {"type": "Point", "coordinates": [-81.5267872, 41.5931049]}, "type": "Feature", "properties": {"rating": 7.5, "genres": ["Drama", "Horror", "Mystery", "Sci-Fi", "Thriller"], "marker-color": "0044FF", "marker-symbol": "cinema", "title": "Pi", "url": "www.imdb.com/title/tt0138704", "id": "0138704", "directors": ["Darren Aronofsky"], "location": "Euclid, Cuyahoga County, Ohio, United States of America", "year": 1998, "num_of_locations": 2}}, {"geometry": {"type": "Point", "coordinates": [-73.9865811, 40.7305991]}, "type": "Feature", "properties": {"rating": 6.8, "genres": ["Drama", "Romance"], "marker-color": "0044FF", "marker-symbol": "cinema", "title": "Cruel Intentions", "url": "www.imdb.com/title/tt0139134", "id": "0139134", "directors": ["Roger Kumble"], "location": "New York City, United States of America", "year": 1999, "num_of_locations": 4}}, {"geometry": {"type": "Point", "coordinates": [-73.9865811, 40.7305991]}, "type": "Feature", "properties": {"rating": 6.8, "genres": ["Drama", "Romance"], "marker-color": "0044FF", "marker-symbol": "cinema", "title": "Cruel Intentions", "url": "www.imdb.com/title/tt0139134", "id": "0139134", "directors": ["Roger Kumble"], "location": "New York City, United States of America", "year": 1999, "num_of_locations": 4}}, {"geometry": {"type": "Point", "coordinates": [-2.2441008, 53.4791301]}, "type": "Feature", "properties": {"rating": 6.8, "genres": ["Drama", "Romance"], "marker-color": "0044FF", "marker-symbol": "cinema", "title": "Cruel Intentions", "url": "www.imdb.com/title/tt0139134", "id": "0139134", "directors": ["Roger Kumble"], "location": "Manchester, Greater Manchester, England, United Kingdom", "year": 1999, "num_of_locations": 4}}, {"geometry": {"type": "Point", "coordinates": [-73.0992276, 40.8517821]}, "type": "Feature", "properties": {"rating": 6.8, "genres": ["Drama", "Romance"], "marker-color": "0044FF", "marker-symbol": "cinema", "title": "Cruel Intentions", "url": "www.imdb.com/title/tt0139134", "id": "0139134", "directors": ["Roger Kumble"], "location": "Lake Ronkonkoma, Suffolk County, New York, United States of America", "year": 1999, "num_of_locations": 4}}, {"geometry": {"type": "Point", "coordinates": [-115.1492249, 36.1662859]}, "type": "Feature", "properties": {"rating": 7.3, "genres": ["Comedy", "Crime"], "marker-color": "0044FF", "marker-symbol": "cinema", "title": "Go", "url": "www.imdb.com/title/tt0139239", "id": "0139239", "directors": ["Doug Liman"], "location": "Las Vegas, Clark County, Nevada, United States of America", "year": 1999, "num_of_locations": 2}}, {"geometry": {"type": "Point", "coordinates": [-118.2444759, 34.054935]}, "type": "Feature", "properties": {"rating": 7.3, "genres": ["Comedy", "Crime"], "marker-color": "0044FF", "marker-symbol": "cinema", "title": "Go", "url": "www.imdb.com/title/tt0139239", "id": "0139239", "directors": ["Doug Liman"], "location": "Los Angeles, Los Angeles County, California, United States of America", "year": 1999, "num_of_locations": 2}}, {"geometry": {"type": "Point", "coordinates": [-73.9865811, 40.7305991]}, "type": "Feature", "properties": {"rating": 6.7, "genres": ["Drama", "Romance"], "marker-color": "0044FF", "marker-symbol": "cinema", "title": "High Art", "url": "www.imdb.com/title/tt0139362", "id": "0139362", "directors": ["Lisa Cholodenko"], "location": "New York City, United States of America", "year": 1998, "num_of_locations": 3}}, {"geometry": {"type": "Point", "coordinates": [-73.9865811, 40.7305991]}, "type": "Feature", "properties": {"rating": 6.7, "genres": ["Drama", "Romance"], "marker-color": "0044FF", "marker-symbol": "cinema", "title": "High Art", "url": "www.imdb.com/title/tt0139362", "id": "0139362", "directors": ["Lisa Cholodenko"], "location": "New York City, United States of America", "year": 1998, "num_of_locations": 3}}, {"geometry": {"type": "Point", "coordinates": [151.2164539, -33.8548156]}, "type": "Feature", "properties": {"rating": 6.7, "genres": ["Drama", "Romance"], "marker-color": "0044FF", "marker-symbol": "cinema", "title": "High Art", "url": "www.imdb.com/title/tt0139362", "id": "0139362", "directors": ["Lisa Cholodenko"], "location": "Sydney, Australia", "year": 1998, "num_of_locations": 3}}, {"geometry": {"type": "Point", "coordinates": [-81.4639834, 27.7567667]}, "type": "Feature", "properties": {"rating": 5.6, "genres": ["Action", "Comedy", "Horror"], "marker-color": "0044FF", "marker-symbol": "cinema", "title": "Lake Placid", "url": "www.imdb.com/title/tt0139414", "id": "0139414", "directors": ["Steve Miner"], "location": "Florida, United States of America", "year": 1999, "num_of_locations": 5}}, {"geometry": {"type": "Point", "coordinates": [-122.6741948, 45.5202471]}, "type": "Feature", "properties": {"rating": 5.6, "genres": ["Action", "Comedy", "Horror"], "marker-color": "0044FF", "marker-symbol": "cinema", "title": "Lake Placid", "url": "www.imdb.com/title/tt0139414", "id": "0139414", "directors": ["Steve Miner"], "location": "Portland, Multnomah County, Oregon, United States of America", "year": 1999, "num_of_locations": 5}}, {"geometry": {"type": "Point", "coordinates": [-98.2155503, 39.0343606]}, "type": "Feature", "properties": {"rating": 5.6, "genres": ["Action", "Comedy", "Horror"], "marker-color": "0044FF", "marker-symbol": "cinema", "title": "Lake Placid", "url": "www.imdb.com/title/tt0139414", "id": "0139414", "directors": ["Steve Miner"], "location": "Lincoln County, Kansas, United States of America", "year": 1999, "num_of_locations": 5}}, {"geometry": {"type": "Point", "coordinates": [-74.8618309, 41.6453673]}, "type": "Feature", "properties": {"rating": 5.6, "genres": ["Action", "Comedy", "Horror"], "marker-color": "0044FF", "marker-symbol": "cinema", "title": "Lake Placid", "url": "www.imdb.com/title/tt0139414", "id": "0139414", "directors": ["Steve Miner"], "location": "Black Lake, Sullivan County, New York, United States of America", "year": 1999, "num_of_locations": 5}}, {"geometry": {"type": "Point", "coordinates": [-68.85902, 45.709097]}, "type": "Feature", "properties": {"rating": 5.6, "genres": ["Action", "Comedy", "Horror"], "marker-color": "0044FF", "marker-symbol": "cinema", "title": "Lake Placid", "url": "www.imdb.com/title/tt0139414", "id": "0139414", "directors": ["Steve Miner"], "location": "Maine, United States of America", "year": 1999, "num_of_locations": 5}}, {"geometry": {"type": "Point", "coordinates": [-92.7140402, 32.5276503]}, "type": "Feature", "properties": {"rating": 6.4, "genres": ["Comedy", "Drama", "Romance", "Sport"], "marker-color": "0044FF", "marker-symbol": "cinema", "title": "Varsity Blues", "url": "www.imdb.com/title/tt0139699", "id": "0139699", "directors": ["Brian Robbins"], "location": "Grambling, Lincoln Parish, Louisiana, United States of America", "year": 1999, "num_of_locations": 2}}, {"geometry": {"type": "Point", "coordinates": [-99.5120985, 31.8160381]}, "type": "Feature", "properties": {"rating": 6.4, "genres": ["Comedy", "Drama", "Romance", "Sport"], "marker-color": "0044FF", "marker-symbol": "cinema", "title": "Varsity Blues", "url": "www.imdb.com/title/tt0139699", "id": "0139699", "directors": ["Brian Robbins"], "location": "Texas, United States of America", "year": 1999, "num_of_locations": 2}}, {"geometry": {"type": "Point", "coordinates": [-118.2444759, 34.054935]}, "type": "Feature", "properties": {"rating": 7.0, "genres": ["Mystery", "Sci-Fi", "Thriller"], "marker-color": "0044FF", "marker-symbol": "cinema", "title": "The Thirteenth Floor", "url": "www.imdb.com/title/tt0139809", "id": "0139809", "directors": ["Josef Rusnak"], "location": "Los Angeles, Los Angeles County, California, United States of America", "year": 1999, "num_of_locations": 1}}, {"geometry": {"type": "Point", "coordinates": [-89.7348496, 32.9715645]}, "type": "Feature", "properties": {"rating": 7.9, "genres": ["Biography", "Drama", "Thriller"], "marker-color": "0044FF", "marker-symbol": "cinema", "title": "The Insider", "url": "www.imdb.com/title/tt0140352", "id": "0140352", "directors": ["Michael Mann"], "location": "Mississippi, United States of America", "year": 1999, "num_of_locations": 9}}, {"geometry": {"type": "Point", "coordinates": [-73.9865811, 40.7305991]}, "type": "Feature", "properties": {"rating": 7.9, "genres": ["Biography", "Drama", "Thriller"], "marker-color": "0044FF", "marker-symbol": "cinema", "title": "The Insider", "url": "www.imdb.com/title/tt0140352", "id": "0140352", "directors": ["Michael Mann"], "location": "New York City, United States of America", "year": 1999, "num_of_locations": 9}}, {"geometry": {"type": "Point", "coordinates": [35.843409, 33.8750629]}, "type": "Feature", "properties": {"rating": 7.9, "genres": ["Biography", "Drama", "Thriller"], "marker-color": "0044FF", "marker-symbol": "cinema", "title": "The Insider", "url": "www.imdb.com/title/tt0140352", "id": "0140352", "directors": ["Michael Mann"], "location": "Lebanon", "year": 1999, "num_of_locations": 9}}, {"geometry": {"type": "Point", "coordinates": [-85.155141, 37.5726028]}, "type": "Feature", "properties": {"rating": 7.9, "genres": ["Biography", "Drama", "Thriller"], "marker-color": "0044FF", "marker-symbol": "cinema", "title": "The Insider", "url": "www.imdb.com/title/tt0140352", "id": "0140352", "directors": ["Michael Mann"], "location": "Kentucky, United States of America", "year": 1999, "num_of_locations": 9}}, {"geometry": {"type": "Point", "coordinates": [-85.757831, 38.2509279]}, "type": "Feature", "properties": {"rating": 7.9, "genres": ["Biography", "Drama", "Thriller"], "marker-color": "0044FF", "marker-symbol": "cinema", "title": "The Insider", "url": "www.imdb.com/title/tt0140352", "id": "0140352", "directors": ["Michael Mann"], "location": "The Seelbach Hilton Hotel, 500 South 4th Street, Louisville, KY 40202, United States of America", "year": 1999, "num_of_locations": 9}}, {"geometry": {"type": "Point", "coordinates": [-85.7594069, 38.2542376]}, "type": "Feature", "properties": {"rating": 7.9, "genres": ["Biography", "Drama", "Thriller"], "marker-color": "0044FF", "marker-symbol": "cinema", "title": "The Insider", "url": "www.imdb.com/title/tt0140352", "id": "0140352", "directors": ["Michael Mann"], "location": "Louisville, Jefferson County, Kentucky, United States of America", "year": 1999, "num_of_locations": 9}}, {"geometry": {"type": "Point", "coordinates": [-73.9865811, 40.7305991]}, "type": "Feature", "properties": {"rating": 7.9, "genres": ["Biography", "Drama", "Thriller"], "marker-color": "0044FF", "marker-symbol": "cinema", "title": "The Insider", "url": "www.imdb.com/title/tt0140352", "id": "0140352", "directors": ["Michael Mann"], "location": "New York City, United States of America", "year": 1999, "num_of_locations": 9}}, {"geometry": {"type": "Point", "coordinates": [-118.7559973, 36.7014631]}, "type": "Feature", "properties": {"rating": 7.9, "genres": ["Biography", "Drama", "Thriller"], "marker-color": "0044FF", "marker-symbol": "cinema", "title": "The Insider", "url": "www.imdb.com/title/tt0140352", "id": "0140352", "directors": ["Michael Mann"], "location": "California, United States of America", "year": 1999, "num_of_locations": 9}}, {"geometry": {"type": "Point", "coordinates": [-122.2728638, 37.8708393]}, "type": "Feature", "properties": {"rating": 7.9, "genres": ["Biography", "Drama", "Thriller"], "marker-color": "0044FF", "marker-symbol": "cinema", "title": "The Insider", "url": "www.imdb.com/title/tt0140352", "id": "0140352", "directors": ["Michael Mann"], "location": "Berkeley, Alameda County, California, United States of America", "year": 1999, "num_of_locations": 9}}, {"geometry": {"type": "Point", "coordinates": [-122.4798473, 37.8302809]}, "type": "Feature", "properties": {"rating": 6.3, "genres": ["Comedy", "Crime", "Drama"], "marker-color": "0044FF", "marker-symbol": "cinema", "title": "Crazy in Alabama", "url": "www.imdb.com/title/tt0142201", "id": "0142201", "directors": ["Antonio Banderas"], "location": "Golden Gate Bridge, Waldo, CA 94129, United States of America", "year": 1999, "num_of_locations": 5}}, {"geometry": {"type": "Point", "coordinates": [-118.3299898, 34.1028268]}, "type": "Feature", "properties": {"rating": 6.3, "genres": ["Comedy", "Crime", "Drama"], "marker-color": "0044FF", "marker-symbol": "cinema", "title": "Crazy in Alabama", "url": "www.imdb.com/title/tt0142201", "id": "0142201", "directors": ["Antonio Banderas"], "location": "Hollywood, Los Angeles, Los Angeles County, California, United States of America", "year": 1999, "num_of_locations": 5}}, {"geometry": {"type": "Point", "coordinates": [-90.0701155, 29.9499323]}, "type": "Feature", "properties": {"rating": 6.3, "genres": ["Comedy", "Crime", "Drama"], "marker-color": "0044FF", "marker-symbol": "cinema", "title": "Crazy in Alabama", "url": "www.imdb.com/title/tt0142201", "id": "0142201", "directors": ["Antonio Banderas"], "location": "New Orleans, Orleans Parish, Louisiana, United States of America", "year": 1999, "num_of_locations": 5}}, {"geometry": {"type": "Point", "coordinates": [-86.8295336, 33.2588817]}, "type": "Feature", "properties": {"rating": 6.3, "genres": ["Comedy", "Crime", "Drama"], "marker-color": "0044FF", "marker-symbol": "cinema", "title": "Crazy in Alabama", "url": "www.imdb.com/title/tt0142201", "id": "0142201", "directors": ["Antonio Banderas"], "location": "Alabama, United States of America", "year": 1999, "num_of_locations": 5}}, {"geometry": {"type": "Point", "coordinates": [-115.1492249, 36.1662859]}, "type": "Feature", "properties": {"rating": 6.3, "genres": ["Comedy", "Crime", "Drama"], "marker-color": "0044FF", "marker-symbol": "cinema", "title": "Crazy in Alabama", "url": "www.imdb.com/title/tt0142201", "id": "0142201", "directors": ["Antonio Banderas"], "location": "Las Vegas, Clark County, Nevada, United States of America", "year": 1999, "num_of_locations": 5}}, {"geometry": {"type": "Point", "coordinates": [10.0, 51.0]}, "type": "Feature", "properties": {"rating": 6.7, "genres": ["Drama", "Mystery", "Thriller"], "marker-color": "0044FF", "marker-symbol": "cinema", "title": "The Ninth Gate", "url": "www.imdb.com/title/tt0142688", "id": "0142688", "directors": ["Roman Polanski"], "location": "Europe", "year": 1999, "num_of_locations": 5}}, {"geometry": {"type": "Point", "coordinates": [2.3514992, 48.8566101]}, "type": "Feature", "properties": {"rating": 6.7, "genres": ["Drama", "Mystery", "Thriller"], "marker-color": "0044FF", "marker-symbol": "cinema", "title": "The Ninth Gate", "url": "www.imdb.com/title/tt0142688", "id": "0142688", "directors": ["Roman Polanski"], "location": "Paris, France", "year": 1999, "num_of_locations": 5}}, {"geometry": {"type": "Point", "coordinates": [24.2449457, 41.147165]}, "type": "Feature", "properties": {"rating": 6.7, "genres": ["Drama", "Mystery", "Thriller"], "marker-color": "0044FF", "marker-symbol": "cinema", "title": "The Ninth Gate", "url": "www.imdb.com/title/tt0142688", "id": "0142688", "directors": ["Roman Polanski"], "location": "Balkan Peninsula, \u0394\u03c1\u03ac\u03bc\u03b1 - \u039e\u03ac\u03bd\u03b8\u03b7, 66100 Choristi, Greece", "year": 1999, "num_of_locations": 5}}, {"geometry": {"type": "Point", "coordinates": [-4.0031039, 40.0028028]}, "type": "Feature", "properties": {"rating": 6.7, "genres": ["Drama", "Mystery", "Thriller"], "marker-color": "0044FF", "marker-symbol": "cinema", "title": "The Ninth Gate", "url": "www.imdb.com/title/tt0142688", "id": "0142688", "directors": ["Roman Polanski"], "location": "Spain", "year": 1999, "num_of_locations": 5}}, {"geometry": {"type": "Point", "coordinates": [-112.0056282, 33.5894963]}, "type": "Feature", "properties": {"rating": 6.7, "genres": ["Drama", "Mystery", "Thriller"], "marker-color": "0044FF", "marker-symbol": "cinema", "title": "The Ninth Gate", "url": "www.imdb.com/title/tt0142688", "id": "0142688", "directors": ["Roman Polanski"], "location": "Kingdom Hall of Jehovahs Witnesses of Desert Shadows, East Cholla Street, Phoenix, AZ 85028, United States of America", "year": 1999, "num_of_locations": 5}}, {"geometry": {"type": "Point", "coordinates": [49.8328549, 40.3754289]}, "type": "Feature", "properties": {"rating": 6.4, "genres": ["Action", "Adventure", "Thriller"], "marker-color": "0044FF", "marker-symbol": "cinema", "title": "The World Is Not Enough", "url": "www.imdb.com/title/tt0143145", "id": "0143145", "directors": ["Michael Apted"], "location": "Baku, Bak\u0131 \u0130nzibati \u018frazisi, Azerbaijan", "year": 1999, "num_of_locations": 10}}, {"geometry": {"type": "Point", "coordinates": [-4.1140517, 56.7861112]}, "type": "Feature", "properties": {"rating": 6.4, "genres": ["Action", "Adventure", "Thriller"], "marker-color": "0044FF", "marker-symbol": "cinema", "title": "The World Is Not Enough", "url": "www.imdb.com/title/tt0143145", "id": "0143145", "directors": ["Michael Apted"], "location": "Scotland, United Kingdom", "year": 1999, "num_of_locations": 10}}, {"geometry": {"type": "Point", "coordinates": [175.5632199, -39.2752472]}, "type": "Feature", "properties": {"rating": 6.4, "genres": ["Action", "Adventure", "Thriller"], "marker-color": "0044FF", "marker-symbol": "cinema", "title": "The World Is Not Enough", "url": "www.imdb.com/title/tt0143145", "id": "0143145", "directors": ["Michael Apted"], "location": "Dome, Taupo District, New Zealand", "year": 1999, "num_of_locations": 10}}, {"geometry": {"type": "Point", "coordinates": [-2.9349458, 43.2629489]}, "type": "Feature", "properties": {"rating": 6.4, "genres": ["Action", "Adventure", "Thriller"], "marker-color": "0044FF", "marker-symbol": "cinema", "title": "The World Is Not Enough", "url": "www.imdb.com/title/tt0143145", "id": "0143145", "directors": ["Michael Apted"], "location": "Bilbao, Basque Country, Spain", "year": 1999, "num_of_locations": 10}}, {"geometry": {"type": "Point", "coordinates": [0.0031968, 51.5029312]}, "type": "Feature", "properties": {"rating": 6.4, "genres": ["Action", "Adventure", "Thriller"], "marker-color": "0044FF", "marker-symbol": "cinema", "title": "The World Is Not Enough", "url": "www.imdb.com/title/tt0143145", "id": "0143145", "directors": ["Michael Apted"], "location": "The O2, 02 Skywalk, London SE10 0DX, United Kingdom", "year": 1999, "num_of_locations": 10}}, {"geometry": {"type": "Point", "coordinates": [175.5456098, -37.1365278]}, "type": "Feature", "properties": {"rating": 6.4, "genres": ["Action", "Adventure", "Thriller"], "marker-color": "0044FF", "marker-symbol": "cinema", "title": "The World Is Not Enough", "url": "www.imdb.com/title/tt0143145", "id": "0143145", "directors": ["Michael Apted"], "location": "Thames, Thames Coromandel District, New Zealand", "year": 1999, "num_of_locations": 10}}, {"geometry": {"type": "Point", "coordinates": [-0.1276473, 51.5073219]}, "type": "Feature", "properties": {"rating": 6.4, "genres": ["Action", "Adventure", "Thriller"], "marker-color": "0044FF", "marker-symbol": "cinema", "title": "The World Is Not Enough", "url": "www.imdb.com/title/tt0143145", "id": "0143145", "directors": ["Michael Apted"], "location": "London, United Kingdom", "year": 1999, "num_of_locations": 10}}, {"geometry": {"type": "Point", "coordinates": [131.8937745, 43.0997793]}, "type": "Feature", "properties": {"rating": 6.4, "genres": ["Action", "Adventure", "Thriller"], "marker-color": "0044FF", "marker-symbol": "cinema", "title": "The World Is Not Enough", "url": "www.imdb.com/title/tt0143145", "id": "0143145", "directors": ["Michael Apted"], "location": "Caucasus, \u041f\u0438\u0445\u0442\u043e\u0432\u0430\u044f \u0443\u043b\u0438\u0446\u0430 10\u0411, Vladivostok, Primorsky Krai, Russian Federation, 690000", "year": 1999, "num_of_locations": 10}}, {"geometry": {"type": "Point", "coordinates": [97.7453061, 64.6863136]}, "type": "Feature", "properties": {"rating": 6.4, "genres": ["Action", "Adventure", "Thriller"], "marker-color": "0044FF", "marker-symbol": "cinema", "title": "The World Is Not Enough", "url": "www.imdb.com/title/tt0143145", "id": "0143145", "directors": ["Michael Apted"], "location": "Russian Federation", "year": 1999, "num_of_locations": 10}}, {"geometry": {"type": "Point", "coordinates": [-4.0031039, 40.0028028]}, "type": "Feature", "properties": {"rating": 6.4, "genres": ["Action", "Adventure", "Thriller"], "marker-color": "0044FF", "marker-symbol": "cinema", "title": "The World Is Not Enough", "url": "www.imdb.com/title/tt0143145", "id": "0143145", "directors": ["Michael Apted"], "location": "Spain", "year": 1999, "num_of_locations": 10}}, {"geometry": {"type": "Point", "coordinates": [-71.0595677, 42.3604823]}, "type": "Feature", "properties": {"rating": 7.9, "genres": ["Action", "Crime", "Thriller"], "marker-color": "0044FF", "marker-symbol": "cinema", "title": "The Boondock Saints", "url": "www.imdb.com/title/tt0144117", "id": "0144117", "directors": ["Troy Duffy"], "location": "Boston, Suffolk, Massachusetts, United States of America", "year": 1999, "num_of_locations": 1}}, {"geometry": {"type": "Point", "coordinates": [-74.0434735, 40.8859326]}, "type": "Feature", "properties": {"rating": 5.4, "genres": ["Comedy", "Horror"], "marker-color": "0044FF", "marker-symbol": "cinema", "title": "Bride of Chucky", "url": "www.imdb.com/title/tt0144120", "id": "0144120", "directors": ["Ronny Yu"], "location": "Hackensack, Bergen County, New Jersey, United States of America", "year": 1998, "num_of_locations": 1}}, {"geometry": {"type": "Point", "coordinates": [-72.5002607, 44.5990718]}, "type": "Feature", "properties": {"rating": 2.3, "genres": ["Sci-Fi"], "marker-color": "0044FF", "marker-symbol": "cinema", "title": "Time Chasers", "url": "www.imdb.com/title/tt0145529", "id": "0145529", "directors": ["David Giancola"], "location": "Vermont, United States of America", "year": 1994, "num_of_locations": 1}}, {"geometry": {"type": "Point", "coordinates": [-53.1999999, -10.3333332]}, "type": "Feature", "properties": {"rating": 6.2, "genres": ["Horror"], "marker-color": "0044FF", "marker-symbol": "cinema", "title": "Stigmata", "url": "www.imdb.com/title/tt0145531", "id": "0145531", "directors": ["Rupert Wainwright"], "location": "Brazil", "year": 1999, "num_of_locations": 5}}, {"geometry": {"type": "Point", "coordinates": [1.215829, 6.130419]}, "type": "Feature", "properties": {"rating": 6.2, "genres": ["Horror"], "marker-color": "0044FF", "marker-symbol": "cinema", "title": "Stigmata", "url": "www.imdb.com/title/tt0145531", "id": "0145531", "directors": ["Rupert Wainwright"], "location": "Lom\u00e9, Togo", "year": 1999, "num_of_locations": 5}}, {"geometry": {"type": "Point", "coordinates": [-79.990086, 40.4416941]}, "type": "Feature", "properties": {"rating": 6.2, "genres": ["Horror"], "marker-color": "0044FF", "marker-symbol": "cinema", "title": "Stigmata", "url": "www.imdb.com/title/tt0145531", "id": "0145531", "directors": ["Rupert Wainwright"], "location": "Pittsburgh, Allegheny County, Pennsylvania, United States of America", "year": 1999, "num_of_locations": 5}}, {"geometry": {"type": "Point", "coordinates": [-76.38105, 41.01453]}, "type": "Feature", "properties": {"rating": 6.2, "genres": ["Horror"], "marker-color": "0044FF", "marker-symbol": "cinema", "title": "Stigmata", "url": "www.imdb.com/title/tt0145531", "id": "0145531", "directors": ["Rupert Wainwright"], "location": "Almedia, Columbia County, Pennsylvania, United States of America", "year": 1999, "num_of_locations": 5}}, {"geometry": {"type": "Point", "coordinates": [12.4528349, 41.9034912]}, "type": "Feature", "properties": {"rating": 6.2, "genres": ["Horror"], "marker-color": "0044FF", "marker-symbol": "cinema", "title": "Stigmata", "url": "www.imdb.com/title/tt0145531", "id": "0145531", "directors": ["Rupert Wainwright"], "location": "Vatican City", "year": 1999, "num_of_locations": 5}}, {"geometry": {"type": "Point", "coordinates": [-73.9495822, 40.6501038]}, "type": "Feature", "properties": {"rating": 7.3, "genres": ["Drama"], "marker-color": "0044FF", "marker-symbol": "cinema", "title": "Angela's Ashes", "url": "www.imdb.com/title/tt0145653", "id": "0145653", "directors": ["Alan Parker"], "location": "Brooklyn, New York City, Kings County, New York, United States of America", "year": 1999, "num_of_locations": 5}}, {"geometry": {"type": "Point", "coordinates": [-0.5402402, 52.7954791]}, "type": "Feature", "properties": {"rating": 7.3, "genres": ["Drama"], "marker-color": "0044FF", "marker-symbol": "cinema", "title": "Angela's Ashes", "url": "www.imdb.com/title/tt0145653", "id": "0145653", "directors": ["Alan Parker"], "location": "England, United Kingdom", "year": 1999, "num_of_locations": 5}}, {"geometry": {"type": "Point", "coordinates": [-8.6301238, 52.661252]}, "type": "Feature", "properties": {"rating": 7.3, "genres": ["Drama"], "marker-color": "0044FF", "marker-symbol": "cinema", "title": "Angela's Ashes", "url": "www.imdb.com/title/tt0145653", "id": "0145653", "directors": ["Alan Parker"], "location": "Limerick, County Limerick, Ireland", "year": 1999, "num_of_locations": 5}}, {"geometry": {"type": "Point", "coordinates": [-7.9794598, 52.865196]}, "type": "Feature", "properties": {"rating": 7.3, "genres": ["Drama"], "marker-color": "0044FF", "marker-symbol": "cinema", "title": "Angela's Ashes", "url": "www.imdb.com/title/tt0145653", "id": "0145653", "directors": ["Alan Parker"], "location": "Ireland", "year": 1999, "num_of_locations": 5}}, {"geometry": {"type": "Point", "coordinates": [-92.9897215, 47.6043505]}, "type": "Feature", "properties": {"rating": 7.3, "genres": ["Drama"], "marker-color": "0044FF", "marker-symbol": "cinema", "title": "Angela's Ashes", "url": "www.imdb.com/title/tt0145653", "id": "0145653", "directors": ["Alan Parker"], "location": "Shannon River, Saint Louis County, Minnesota, United States of America", "year": 1999, "num_of_locations": 5}}, {"geometry": {"type": "Point", "coordinates": [-77.0366455, 38.8949549]}, "type": "Feature", "properties": {"rating": 6.6, "genres": ["Action", "Adventure", "Comedy", "Crime"], "marker-color": "0044FF", "marker-symbol": "cinema", "title": "Austin Powers: The Spy Who Shagged Me", "url": "www.imdb.com/title/tt0145660", "id": "0145660", "directors": ["Jay Roach"], "location": "Washington, District of Columbia, United States of America", "year": 1999, "num_of_locations": 6}}, {"geometry": {"type": "Point", "coordinates": [-98.5112499, 29.705694]},